{"ttl":60,"data":{"stations":[{"lat":35.707252,"lon":139.777587,"name":"新御徒町ステーション","address":"東京都台東区台東４丁目３１－１","station_id":"17","rental_uris":{"ios":"https://www.hellocycling.jp/app/port/detail/17?referrer=odpt","web":"https://www.hellocycling.jp/app/port/detail/17?referrer=odpt","android":"https://www.hellocycling.jp/app/port/detail/17?referrer=odpt"},"parking_hoop":false,"parking_type":"street_parking","contact_phone":"+8105038218282","vehicle_capacity":"8","is_charging_station":false},{"lat":35.844371034915,"lon":139.65882343225,"name":"【ベルシェア】ベルニクステクニカルセンター","address":"埼玉県さいたま市南区根岸５丁目６－１","station_id":"26","rental_uris":{"ios":"https://www.hellocycling.jp/app/port/detail/26?referrer=odpt","web":"https://www.hellocycling.jp/app/port/detail/26?referrer=odpt","android":"https://www.hellocycling.jp/app/port/detail/26?referrer=odpt"},"parking_hoop":false,"parking_type":"street_parking","contact_phone":"+8105038218282","vehicle_capacity":"10","is_charging_station":true},{"lat":35.890588,"lon":139.730801,"name":"イオンモール浦和美園（線路側）","address":"埼玉県さいたま市緑区美園5-50-1","station_id":"39","rental_uris":{"ios":"https://www.hellocycling.jp/app/port/detail/39?referrer=odpt","web":"https://www.hellocycling.jp/app/port/detail/39?referrer=odpt","android":"https://www.hellocycling.jp/app/port/detail/39?referrer=odpt"},"parking_hoop":false,"parking_type":"street_parking","contact_phone":"+8105038218282","vehicle_capacity":"7","is_charging_station":false},{"lat":35.892394,"lon":139.730709,"name":"イオンモール浦和美園（北）","address":"埼玉県さいたま市緑区美園5-50-1","station_id":"40","rental_uris":{"ios":"https://www.hellocycling.jp/app/port/detail/40?referrer=odpt","web":"https://www.hellocycling.jp/app/port/detail/40?referrer=odpt","android":"https://www.hellocycling.jp/app/port/detail/40?referrer=odpt"},"parking_hoop":false,"parking_type":"street_parking","contact_phone":"+8105038218282","vehicle_capacity":"7","is_charging_station":false},{"lat":35.889631,"lon":139.718152,"name":"美園公民館前","address":"埼玉県さいたま市緑区大門1973-1","station_id":"41","rental_uris":{"ios":"https://www.hellocycling.jp/app/port/detail/41?referrer=odpt","web":"https://www.hellocycling.jp/app/port/detail/41?referrer=odpt","android":"https://www.hellocycling.jp/app/port/detail/41?referrer=odpt"},"parking_hoop":false,"parking_type":"street_parking","contact_phone":"+8105038218282","vehicle_capacity":"4","is_charging_station":false},{"lat":35.6546215,"lon":139.7597654,"name":"seesaw","address":"東京都港区海岸1-4-22","station_id":"75","rental_uris":{"ios":"https://www.hellocycling.jp/app/port/detail/75?referrer=odpt","web":"https://www.hellocycling.jp/app/port/detail/75?referrer=odpt","android":"https://www.hellocycling.jp/app/port/detail/75?referrer=odpt"},"parking_hoop":false,"parking_type":"street_parking","contact_phone":"+8105038218282","vehicle_capacity":"12","is_charging_station":false},{"lat":35.681758,"lon":139.578239,"name":"ダイシャリン 三鷹店","address":"東京都三鷹市北野2-6-42","station_id":"76","rental_uris":{"ios":"https://www.hellocycling.jp/app/port/detail/76?referrer=odpt","web":"https://www.hellocycling.jp/app/port/detail/76?referrer=odpt","android":"https://www.hellocycling.jp/app/port/detail/76?referrer=odpt"},"parking_hoop":false,"parking_type":"street_parking","contact_phone":"+8105038218282","vehicle_capacity":"3","is_charging_station":false},{"lat":35.734776,"lon":139.694862,"name":"ダイシャリン 池袋店","address":"東京都豊島区要町1-24-5","station_id":"77","rental_uris":{"ios":"https://www.hellocycling.jp/app/port/detail/77?referrer=odpt","web":"https://www.hellocycling.jp/app/port/detail/77?referrer=odpt","android":"https://www.hellocycling.jp/app/port/detail/77?referrer=odpt"},"parking_hoop":false,"parking_type":"street_parking","contact_phone":"+8105038218282","vehicle_capacity":"4","is_charging_station":false},{"lat":35.707615,"lon":139.737392,"name":"ダイシャリン 江戸川橋駅店","address":"東京都新宿区西五軒町9-2","station_id":"79","rental_uris":{"ios":"https://www.hellocycling.jp/app/port/detail/79?referrer=odpt","web":"https://www.hellocycling.jp/app/port/detail/79?referrer=odpt","android":"https://www.hellocycling.jp/app/port/detail/79?referrer=odpt"},"parking_hoop":false,"parking_type":"street_parking","contact_phone":"+8105038218282","vehicle_capacity":"3","is_charging_station":false},{"lat":35.670067,"lon":139.477258,"name":"ダイシャリン 府中店","address":"東京都府中市宮西町2-8-6","station_id":"81","rental_uris":{"ios":"https://www.hellocycling.jp/app/port/detail/81?referrer=odpt","web":"https://www.hellocycling.jp/app/port/detail/81?referrer=odpt","android":"https://www.hellocycling.jp/app/port/detail/81?referrer=odpt"},"parking_hoop":false,"parking_type":"street_parking","contact_phone":"+8105038218282","vehicle_capacity":"3","is_charging_station":false},{"lat":35.748608593213,"lon":139.58446249366,"name":"サイクルスポット大泉学園店","address":"東京都練馬区東大泉6-51-4","station_id":"110","rental_uris":{"ios":"https://www.hellocycling.jp/app/port/detail/110?referrer=odpt","web":"https://www.hellocycling.jp/app/port/detail/110?referrer=odpt","android":"https://www.hellocycling.jp/app/port/detail/110?referrer=odpt"},"parking_hoop":false,"parking_type":"street_parking","contact_phone":"+8105038218282","vehicle_capacity":"4","is_charging_station":false},{"lat":35.636521,"lon":139.588661,"name":"サイクルスポット喜多見店","address":"東京都世田谷区喜多見8-17-10","station_id":"112","rental_uris":{"ios":"https://www.hellocycling.jp/app/port/detail/112?referrer=odpt","web":"https://www.hellocycling.jp/app/port/detail/112?referrer=odpt","android":"https://www.hellocycling.jp/app/port/detail/112?referrer=odpt"},"parking_hoop":false,"parking_type":"street_parking","contact_phone":"+8105038218282","vehicle_capacity":"2","is_charging_station":false},{"lat":35.626882,"lon":139.643571,"name":"サイクルスポット桜新町店","address":"東京都世田谷区桜新町1-33-2","station_id":"118","rental_uris":{"ios":"https://www.hellocycling.jp/app/port/detail/118?referrer=odpt","web":"https://www.hellocycling.jp/app/port/detail/118?referrer=odpt","android":"https://www.hellocycling.jp/app/port/detail/118?referrer=odpt"},"parking_hoop":false,"parking_type":"street_parking","contact_phone":"+8105038218282","vehicle_capacity":"4","is_charging_station":false},{"lat":35.649936,"lon":139.744627,"name":"ル・サイク三田店","address":"東京都港区三田2-13-5","station_id":"120","rental_uris":{"ios":"https://www.hellocycling.jp/app/port/detail/120?referrer=odpt","web":"https://www.hellocycling.jp/app/port/detail/120?referrer=odpt","android":"https://www.hellocycling.jp/app/port/detail/120?referrer=odpt"},"parking_hoop":false,"parking_type":"street_parking","contact_phone":"+8105038218282","vehicle_capacity":"2","is_charging_station":false},{"lat":35.70339,"lon":139.561673,"name":"【ベルシェア】高木ビル　三鷹","address":"東京都武蔵野市中町一丁目15番5号","station_id":"142","rental_uris":{"ios":"https://www.hellocycling.jp/app/port/detail/142?referrer=odpt","web":"https://www.hellocycling.jp/app/port/detail/142?referrer=odpt","android":"https://www.hellocycling.jp/app/port/detail/142?referrer=odpt"},"parking_hoop":false,"parking_type":"street_parking","contact_phone":"+8105038218282","vehicle_capacity":"7","is_charging_station":true},{"lat":34.954833,"lon":137.173806,"name":"岡崎市役所","address":"愛知県岡崎市十王町２丁目","station_id":"163","rental_uris":{"ios":"https://www.hellocycling.jp/app/port/detail/163?referrer=odpt","web":"https://www.hellocycling.jp/app/port/detail/163?referrer=odpt","android":"https://www.hellocycling.jp/app/port/detail/163?referrer=odpt"},"parking_hoop":false,"parking_type":"street_parking","contact_phone":"+8105038218282","vehicle_capacity":"12","is_charging_station":false},{"lat":34.9580777,"lon":137.1598589,"name":"岡崎公園大手門","address":"愛知県岡崎市康生町５６１番地","station_id":"164","rental_uris":{"ios":"https://www.hellocycling.jp/app/port/detail/164?referrer=odpt","web":"https://www.hellocycling.jp/app/port/detail/164?referrer=odpt","android":"https://www.hellocycling.jp/app/port/detail/164?referrer=odpt"},"parking_hoop":false,"parking_type":"street_parking","contact_phone":"+8105038218282","vehicle_capacity":"4","is_charging_station":false},{"lat":35.777223,"lon":139.7192448,"name":"赤羽駅西口自転車駐車場(4:00～24：50）       ","address":"東京都北区赤羽西1－7－1","station_id":"182","rental_uris":{"ios":"https://www.hellocycling.jp/app/port/detail/182?referrer=odpt","web":"https://www.hellocycling.jp/app/port/detail/182?referrer=odpt","android":"https://www.hellocycling.jp/app/port/detail/182?referrer=odpt"},"parking_hoop":false,"parking_type":"street_parking","contact_phone":"+8105038218282","vehicle_capacity":"5","is_charging_station":false},{"lat":35.705526,"lon":139.653978,"name":"サイクルベースあさひ高円寺店","address":"東京都杉並区高円寺南4-52-1","station_id":"184","rental_uris":{"ios":"https://www.hellocycling.jp/app/port/detail/184?referrer=odpt","web":"https://www.hellocycling.jp/app/port/detail/184?referrer=odpt","android":"https://www.hellocycling.jp/app/port/detail/184?referrer=odpt"},"parking_hoop":false,"parking_type":"street_parking","contact_phone":"+8105038218282","vehicle_capacity":"4","is_charging_station":false},{"lat":35.698742,"lon":139.744396,"name":"フィル・パークKaguLab.飯田橋","address":"東京都千代田区富士見2-12-13","station_id":"185","rental_uris":{"ios":"https://www.hellocycling.jp/app/port/detail/185?referrer=odpt","web":"https://www.hellocycling.jp/app/port/detail/185?referrer=odpt","android":"https://www.hellocycling.jp/app/port/detail/185?referrer=odpt"},"parking_hoop":false,"parking_type":"street_parking","contact_phone":"+8105038218282","vehicle_capacity":"5","is_charging_station":false},{"lat":35.894604,"lon":139.712935,"name":"セブンイレブン　浦和南部領店","address":"埼玉県さいたま市緑区南部領辻3175-1","station_id":"188","rental_uris":{"ios":"https://www.hellocycling.jp/app/port/detail/188?referrer=odpt","web":"https://www.hellocycling.jp/app/port/detail/188?referrer=odpt","android":"https://www.hellocycling.jp/app/port/detail/188?referrer=odpt"},"parking_hoop":false,"parking_type":"street_parking","contact_phone":"+8105038218282","vehicle_capacity":"5","is_charging_station":false},{"lat":35.955439,"lon":139.650656,"name":"セブンイレブン　さいたま春岡店","address":"埼玉県さいたま市見沼区丸ヶ崎町25-12","station_id":"189","rental_uris":{"ios":"https://www.hellocycling.jp/app/port/detail/189?referrer=odpt","web":"https://www.hellocycling.jp/app/port/detail/189?referrer=odpt","android":"https://www.hellocycling.jp/app/port/detail/189?referrer=odpt"},"parking_hoop":false,"parking_type":"street_parking","contact_phone":"+8105038218282","vehicle_capacity":"6","is_charging_station":false},{"lat":35.923576,"lon":139.655688,"name":"セブンイレブン　大宮大和田前原店","address":"埼玉県さいたま市見沼区大和田町1-1488-7","station_id":"191","rental_uris":{"ios":"https://www.hellocycling.jp/app/port/detail/191?referrer=odpt","web":"https://www.hellocycling.jp/app/port/detail/191?referrer=odpt","android":"https://www.hellocycling.jp/app/port/detail/191?referrer=odpt"},"parking_hoop":false,"parking_type":"street_parking","contact_phone":"+8105038218282","vehicle_capacity":"5","is_charging_station":false},{"lat":35.930472,"lon":139.604566,"name":"セブンイレブン　大宮日進駅西店","address":"埼玉県さいたま市北区日進町2-1136","station_id":"195","rental_uris":{"ios":"https://www.hellocycling.jp/app/port/detail/195?referrer=odpt","web":"https://www.hellocycling.jp/app/port/detail/195?referrer=odpt","android":"https://www.hellocycling.jp/app/port/detail/195?referrer=odpt"},"parking_hoop":false,"parking_type":"street_parking","contact_phone":"+8105038218282","vehicle_capacity":"3","is_charging_station":false},{"lat":35.879452,"lon":139.643929,"name":"セブンイレブン　針ヶ谷店","address":"埼玉県さいたま市浦和区針ヶ谷1-11-4","station_id":"198","rental_uris":{"ios":"https://www.hellocycling.jp/app/port/detail/198?referrer=odpt","web":"https://www.hellocycling.jp/app/port/detail/198?referrer=odpt","android":"https://www.hellocycling.jp/app/port/detail/198?referrer=odpt"},"parking_hoop":false,"parking_type":"street_parking","contact_phone":"+8105038218282","vehicle_capacity":"3","is_charging_station":false},{"lat":35.872215,"lon":139.651599,"name":"セブンイレブン　浦和元町中央店","address":"埼玉県さいたま市浦和区元町2-17-18","station_id":"199","rental_uris":{"ios":"https://www.hellocycling.jp/app/port/detail/199?referrer=odpt","web":"https://www.hellocycling.jp/app/port/detail/199?referrer=odpt","android":"https://www.hellocycling.jp/app/port/detail/199?referrer=odpt"},"parking_hoop":false,"parking_type":"street_parking","contact_phone":"+8105038218282","vehicle_capacity":"3","is_charging_station":false},{"lat":35.863387,"lon":139.644323,"name":"セブンイレブン　浦和常盤店","address":"埼玉県さいたま市浦和区常盤7-16-22","station_id":"200","rental_uris":{"ios":"https://www.hellocycling.jp/app/port/detail/200?referrer=odpt","web":"https://www.hellocycling.jp/app/port/detail/200?referrer=odpt","android":"https://www.hellocycling.jp/app/port/detail/200?referrer=odpt"},"parking_hoop":false,"parking_type":"street_parking","contact_phone":"+8105038218282","vehicle_capacity":"9","is_charging_station":false},{"lat":35.8725779,"lon":139.6417933,"name":"セブンイレブン　浦和常盤10丁目店","address":"埼玉県さいたま市浦和区常盤10-12-17","station_id":"201","rental_uris":{"ios":"https://www.hellocycling.jp/app/port/detail/201?referrer=odpt","web":"https://www.hellocycling.jp/app/port/detail/201?referrer=odpt","android":"https://www.hellocycling.jp/app/port/detail/201?referrer=odpt"},"parking_hoop":false,"parking_type":"street_parking","contact_phone":"+8105038218282","vehicle_capacity":"6","is_charging_station":false},{"lat":35.904469,"lon":139.628921,"name":"セブンイレブン　さいたま下町3丁目店","address":"埼玉県さいたま市大宮区下町3-5-1","station_id":"202","rental_uris":{"ios":"https://www.hellocycling.jp/app/port/detail/202?referrer=odpt","web":"https://www.hellocycling.jp/app/port/detail/202?referrer=odpt","android":"https://www.hellocycling.jp/app/port/detail/202?referrer=odpt"},"parking_hoop":false,"parking_type":"street_parking","contact_phone":"+8105038218282","vehicle_capacity":"5","is_charging_station":false},{"lat":35.899438,"lon":139.626261,"name":"セブンイレブン　さいたま上落合9丁目店","address":"埼玉県さいたま市中央区上落合9-1-1","station_id":"203","rental_uris":{"ios":"https://www.hellocycling.jp/app/port/detail/203?referrer=odpt","web":"https://www.hellocycling.jp/app/port/detail/203?referrer=odpt","android":"https://www.hellocycling.jp/app/port/detail/203?referrer=odpt"},"parking_hoop":false,"parking_type":"street_parking","contact_phone":"+8105038218282","vehicle_capacity":"13","is_charging_station":false},{"lat":35.837665,"lon":139.652098,"name":"セブンイレブン　浦和白幡6丁目店","address":"埼玉県さいたま市南区白幡6-11-6","station_id":"204","rental_uris":{"ios":"https://www.hellocycling.jp/app/port/detail/204?referrer=odpt","web":"https://www.hellocycling.jp/app/port/detail/204?referrer=odpt","android":"https://www.hellocycling.jp/app/port/detail/204?referrer=odpt"},"parking_hoop":false,"parking_type":"street_parking","contact_phone":"+8105038218282","vehicle_capacity":"5","is_charging_station":false},{"lat":35.864546,"lon":139.646476,"name":"セブンイレブン　浦和常盤5丁目店","address":"埼玉県さいたま市浦和区常盤5-17-12","station_id":"207","rental_uris":{"ios":"https://www.hellocycling.jp/app/port/detail/207?referrer=odpt","web":"https://www.hellocycling.jp/app/port/detail/207?referrer=odpt","android":"https://www.hellocycling.jp/app/port/detail/207?referrer=odpt"},"parking_hoop":false,"parking_type":"street_parking","contact_phone":"+8105038218282","vehicle_capacity":"8","is_charging_station":false},{"lat":34.488744,"lon":134.173451,"name":"◆小豆島◆土庄港 マリンレンタカー","address":"香川県土庄町小豆郡土庄町土庄甲6194-11","station_id":"213","rental_uris":{"ios":"https://www.hellocycling.jp/app/port/detail/213?referrer=odpt","web":"https://www.hellocycling.jp/app/port/detail/213?referrer=odpt","android":"https://www.hellocycling.jp/app/port/detail/213?referrer=odpt"},"parking_hoop":false,"parking_type":"street_parking","contact_phone":"+8105038218282","vehicle_capacity":"10","is_charging_station":false},{"lat":34.488537,"lon":134.17275,"name":"◆小豆島◆土庄港 フェリーターミナル入口","address":"香川県土庄町小豆郡土庄町土庄甲5165-201","station_id":"214","rental_uris":{"ios":"https://www.hellocycling.jp/app/port/detail/214?referrer=odpt","web":"https://www.hellocycling.jp/app/port/detail/214?referrer=odpt","android":"https://www.hellocycling.jp/app/port/detail/214?referrer=odpt"},"parking_hoop":false,"parking_type":"street_parking","contact_phone":"+8105038218282","vehicle_capacity":"20","is_charging_station":false},{"lat":34.4548059,"lon":134.3229776,"name":"◆小豆島◆坂手港 臨時ステーション","address":"香川県小豆島町坂手甲1849","station_id":"219","rental_uris":{"ios":"https://www.hellocycling.jp/app/port/detail/219?referrer=odpt","web":"https://www.hellocycling.jp/app/port/detail/219?referrer=odpt","android":"https://www.hellocycling.jp/app/port/detail/219?referrer=odpt"},"parking_hoop":false,"parking_type":"street_parking","contact_phone":"+8105038218282","vehicle_capacity":"20","is_charging_station":false},{"lat":34.470778,"lon":134.23641,"name":"◆小豆島◆ふるさと村","address":"香川県小豆島町小豆郡小豆島町室生2084-1","station_id":"222","rental_uris":{"ios":"https://www.hellocycling.jp/app/port/detail/222?referrer=odpt","web":"https://www.hellocycling.jp/app/port/detail/222?referrer=odpt","android":"https://www.hellocycling.jp/app/port/detail/222?referrer=odpt"},"parking_hoop":false,"parking_type":"street_parking","contact_phone":"+8105038218282","vehicle_capacity":"4","is_charging_station":false},{"lat":34.478995,"lon":134.188748,"name":"◆小豆島◆エンジェルロード","address":"香川県土庄町小豆郡土庄町甲24-92","station_id":"224","rental_uris":{"ios":"https://www.hellocycling.jp/app/port/detail/224?referrer=odpt","web":"https://www.hellocycling.jp/app/port/detail/224?referrer=odpt","android":"https://www.hellocycling.jp/app/port/detail/224?referrer=odpt"},"parking_hoop":false,"parking_type":"street_parking","contact_phone":"+8105038218282","vehicle_capacity":"12","is_charging_station":false},{"lat":34.472815,"lon":134.273344,"name":"◆小豆島◆オリーブ公園 オリーブ記念館裏駐車場","address":"香川県小豆島町小豆郡小豆島町西村甲1941-1","station_id":"225","rental_uris":{"ios":"https://www.hellocycling.jp/app/port/detail/225?referrer=odpt","web":"https://www.hellocycling.jp/app/port/detail/225?referrer=odpt","android":"https://www.hellocycling.jp/app/port/detail/225?referrer=odpt"},"parking_hoop":false,"parking_type":"street_parking","contact_phone":"+8105038218282","vehicle_capacity":"10","is_charging_station":false},{"lat":34.445675,"lon":134.284736,"name":"◆小豆島◆二十四の瞳映画村・壺井栄文学館","address":"香川県小豆島町小豆郡小豆島町田浦甲977-931","station_id":"228","rental_uris":{"ios":"https://www.hellocycling.jp/app/port/detail/228?referrer=odpt","web":"https://www.hellocycling.jp/app/port/detail/228?referrer=odpt","android":"https://www.hellocycling.jp/app/port/detail/228?referrer=odpt"},"parking_hoop":false,"parking_type":"street_parking","contact_phone":"+8105038218282","vehicle_capacity":"15","is_charging_station":false},{"lat":34.503302,"lon":134.241802,"name":"◆小豆島◆中山千枚田・中山農村歌舞伎舞台","address":"香川県小豆島町小豆郡土庄町中山1487","station_id":"231","rental_uris":{"ios":"https://www.hellocycling.jp/app/port/detail/231?referrer=odpt","web":"https://www.hellocycling.jp/app/port/detail/231?referrer=odpt","android":"https://www.hellocycling.jp/app/port/detail/231?referrer=odpt"},"parking_hoop":false,"parking_type":"street_parking","contact_phone":"+8105038218282","vehicle_capacity":"10","is_charging_station":false},{"lat":34.469662,"lon":134.274592,"name":"◆小豆島◆オリーブナビ小豆島","address":"香川県小豆島町小豆郡小豆島町西村甲1896-1","station_id":"232","rental_uris":{"ios":"https://www.hellocycling.jp/app/port/detail/232?referrer=odpt","web":"https://www.hellocycling.jp/app/port/detail/232?referrer=odpt","android":"https://www.hellocycling.jp/app/port/detail/232?referrer=odpt"},"parking_hoop":false,"parking_type":"street_parking","contact_phone":"+8105038218282","vehicle_capacity":"8","is_charging_station":false},{"lat":34.5079878,"lon":134.2964311,"name":"◆小豆島◆寒霞渓ロープウェイこううん駅","address":"香川県小豆島町小豆郡小豆島町神懸通乙168","station_id":"234","rental_uris":{"ios":"https://www.hellocycling.jp/app/port/detail/234?referrer=odpt","web":"https://www.hellocycling.jp/app/port/detail/234?referrer=odpt","android":"https://www.hellocycling.jp/app/port/detail/234?referrer=odpt"},"parking_hoop":false,"parking_type":"street_parking","contact_phone":"+8105038218282","vehicle_capacity":"10","is_charging_station":false},{"lat":34.542869,"lon":134.343629,"name":"◆小豆島◆福田港","address":"香川県小豆島町小豆郡 小豆島町福田甲1196-56","station_id":"235","rental_uris":{"ios":"https://www.hellocycling.jp/app/port/detail/235?referrer=odpt","web":"https://www.hellocycling.jp/app/port/detail/235?referrer=odpt","android":"https://www.hellocycling.jp/app/port/detail/235?referrer=odpt"},"parking_hoop":false,"parking_type":"street_parking","contact_phone":"+8105038218282","vehicle_capacity":"8","is_charging_station":false},{"lat":34.476618,"lon":134.17306,"name":"◆小豆島◆ビーチサイドホテル鹿島荘","address":"香川県土庄町小豆郡土庄町甲1656-1","station_id":"236","rental_uris":{"ios":"https://www.hellocycling.jp/app/port/detail/236?referrer=odpt","web":"https://www.hellocycling.jp/app/port/detail/236?referrer=odpt","android":"https://www.hellocycling.jp/app/port/detail/236?referrer=odpt"},"parking_hoop":false,"parking_type":"street_parking","contact_phone":"+8105038218282","vehicle_capacity":"4","is_charging_station":false},{"lat":34.499629,"lon":134.167742,"name":"◆小豆島◆ホテルグリーンプラザ小豆島","address":"香川県土庄町小豆郡 土庄町伊喜末2464","station_id":"238","rental_uris":{"ios":"https://www.hellocycling.jp/app/port/detail/238?referrer=odpt","web":"https://www.hellocycling.jp/app/port/detail/238?referrer=odpt","android":"https://www.hellocycling.jp/app/port/detail/238?referrer=odpt"},"parking_hoop":false,"parking_type":"street_parking","contact_phone":"+8105038218282","vehicle_capacity":"4","is_charging_station":false},{"lat":34.472034,"lon":134.231216,"name":"◆小豆島◆国民宿舎小豆島","address":"香川県小豆島町小豆郡小豆島町池田1500-4","station_id":"241","rental_uris":{"ios":"https://www.hellocycling.jp/app/port/detail/241?referrer=odpt","web":"https://www.hellocycling.jp/app/port/detail/241?referrer=odpt","android":"https://www.hellocycling.jp/app/port/detail/241?referrer=odpt"},"parking_hoop":false,"parking_type":"street_parking","contact_phone":"+8105038218282","vehicle_capacity":"4","is_charging_station":false},{"lat":34.488644,"lon":134.171796,"name":"◆小豆島◆オーキドホテル","address":"香川県土庄町小豆郡土庄町甲5165-216","station_id":"242","rental_uris":{"ios":"https://www.hellocycling.jp/app/port/detail/242?referrer=odpt","web":"https://www.hellocycling.jp/app/port/detail/242?referrer=odpt","android":"https://www.hellocycling.jp/app/port/detail/242?referrer=odpt"},"parking_hoop":false,"parking_type":"street_parking","contact_phone":"+8105038218282","vehicle_capacity":"7","is_charging_station":false},{"lat":34.470542,"lon":134.270745,"name":"◆小豆島◆オリーブ園","address":"香川県小豆島町小豆郡小豆島町西村甲2171","station_id":"246","rental_uris":{"ios":"https://www.hellocycling.jp/app/port/detail/246?referrer=odpt","web":"https://www.hellocycling.jp/app/port/detail/246?referrer=odpt","android":"https://www.hellocycling.jp/app/port/detail/246?referrer=odpt"},"parking_hoop":false,"parking_type":"street_parking","contact_phone":"+8105038218282","vehicle_capacity":"4","is_charging_station":false},{"lat":34.486277,"lon":134.185912,"name":"◆小豆島◆土庄町役場","address":"香川県土庄町小豆郡土庄町甲559-2","station_id":"248","rental_uris":{"ios":"https://www.hellocycling.jp/app/port/detail/248?referrer=odpt","web":"https://www.hellocycling.jp/app/port/detail/248?referrer=odpt","android":"https://www.hellocycling.jp/app/port/detail/248?referrer=odpt"},"parking_hoop":false,"parking_type":"street_parking","contact_phone":"+8105038218282","vehicle_capacity":"12","is_charging_station":false},{"lat":34.47858,"lon":134.299235,"name":"◆小豆島◆草壁港 駐輪場","address":"香川県小豆島町小豆郡小豆島町草壁本町1053-3","station_id":"252","rental_uris":{"ios":"https://www.hellocycling.jp/app/port/detail/252?referrer=odpt","web":"https://www.hellocycling.jp/app/port/detail/252?referrer=odpt","android":"https://www.hellocycling.jp/app/port/detail/252?referrer=odpt"},"parking_hoop":false,"parking_type":"street_parking","contact_phone":"+8105038218282","vehicle_capacity":"45","is_charging_station":false},{"lat":34.737077,"lon":135.336014,"name":"阪神西宮西駐輪場","address":"兵庫県西宮市産所町4","station_id":"254","rental_uris":{"ios":"https://www.hellocycling.jp/app/port/detail/254?referrer=odpt","web":"https://www.hellocycling.jp/app/port/detail/254?referrer=odpt","android":"https://www.hellocycling.jp/app/port/detail/254?referrer=odpt"},"parking_hoop":false,"parking_type":"street_parking","contact_phone":"+8105038218282","vehicle_capacity":"13","is_charging_station":true},{"lat":34.736249,"lon":135.342873,"name":"阪神西宮東駐輪場","address":"兵庫県西宮市六湛寺町135","station_id":"260","rental_uris":{"ios":"https://www.hellocycling.jp/app/port/detail/260?referrer=odpt","web":"https://www.hellocycling.jp/app/port/detail/260?referrer=odpt","android":"https://www.hellocycling.jp/app/port/detail/260?referrer=odpt"},"parking_hoop":false,"parking_type":"street_parking","contact_phone":"+8105038218282","vehicle_capacity":"4","is_charging_station":true},{"lat":34.724732,"lon":135.361237,"name":"阪神甲子園西駐輪場","address":"兵庫県西宮市甲子園浦風町18","station_id":"268","rental_uris":{"ios":"https://www.hellocycling.jp/app/port/detail/268?referrer=odpt","web":"https://www.hellocycling.jp/app/port/detail/268?referrer=odpt","android":"https://www.hellocycling.jp/app/port/detail/268?referrer=odpt"},"parking_hoop":false,"parking_type":"street_parking","contact_phone":"+8105038218282","vehicle_capacity":"6","is_charging_station":true},{"lat":35.956806,"lon":139.682034,"name":"セブンイレブン　岩槻箕輪店","address":"埼玉県さいたま市岩槻区箕輪字東132","station_id":"271","rental_uris":{"ios":"https://www.hellocycling.jp/app/port/detail/271?referrer=odpt","web":"https://www.hellocycling.jp/app/port/detail/271?referrer=odpt","android":"https://www.hellocycling.jp/app/port/detail/271?referrer=odpt"},"parking_hoop":false,"parking_type":"street_parking","contact_phone":"+8105038218282","vehicle_capacity":"4","is_charging_station":false},{"lat":35.94181,"lon":139.644071,"name":"セブンイレブン　さいたま東大宮7丁目店","address":"埼玉県さいたま市見沼区東大宮7-52-6","station_id":"275","rental_uris":{"ios":"https://www.hellocycling.jp/app/port/detail/275?referrer=odpt","web":"https://www.hellocycling.jp/app/port/detail/275?referrer=odpt","android":"https://www.hellocycling.jp/app/port/detail/275?referrer=odpt"},"parking_hoop":false,"parking_type":"street_parking","contact_phone":"+8105038218282","vehicle_capacity":"4","is_charging_station":false},{"lat":35.9503205,"lon":139.6468674,"name":"セブンイレブン　さいたま東大宮6丁目店","address":"埼玉県さいたま市見沼区東大宮6丁目28-2","station_id":"276","rental_uris":{"ios":"https://www.hellocycling.jp/app/port/detail/276?referrer=odpt","web":"https://www.hellocycling.jp/app/port/detail/276?referrer=odpt","android":"https://www.hellocycling.jp/app/port/detail/276?referrer=odpt"},"parking_hoop":false,"parking_type":"street_parking","contact_phone":"+8105038218282","vehicle_capacity":"10","is_charging_station":false},{"lat":35.948431,"lon":139.641417,"name":"セブンイレブン　東大宮店","address":"埼玉県さいたま市見沼区東大宮5丁目1-5","station_id":"277","rental_uris":{"ios":"https://www.hellocycling.jp/app/port/detail/277?referrer=odpt","web":"https://www.hellocycling.jp/app/port/detail/277?referrer=odpt","android":"https://www.hellocycling.jp/app/port/detail/277?referrer=odpt"},"parking_hoop":false,"parking_type":"street_parking","contact_phone":"+8105038218282","vehicle_capacity":"8","is_charging_station":false},{"lat":35.951022,"lon":139.60033,"name":"セブンイレブン　さいたま奈良町北店","address":"埼玉県さいたま市北区奈良町109-4","station_id":"280","rental_uris":{"ios":"https://www.hellocycling.jp/app/port/detail/280?referrer=odpt","web":"https://www.hellocycling.jp/app/port/detail/280?referrer=odpt","android":"https://www.hellocycling.jp/app/port/detail/280?referrer=odpt"},"parking_hoop":false,"parking_type":"street_parking","contact_phone":"+8105038218282","vehicle_capacity":"3","is_charging_station":false},{"lat":35.95326,"lon":139.623183,"name":"セブンイレブン　さいたま今羽町店","address":"埼玉県さいたま市北区今羽町352","station_id":"281","rental_uris":{"ios":"https://www.hellocycling.jp/app/port/detail/281?referrer=odpt","web":"https://www.hellocycling.jp/app/port/detail/281?referrer=odpt","android":"https://www.hellocycling.jp/app/port/detail/281?referrer=odpt"},"parking_hoop":false,"parking_type":"street_parking","contact_phone":"+8105038218282","vehicle_capacity":"5","is_charging_station":false},{"lat":35.897446,"lon":139.605133,"name":"セブンイレブン　さいたま三橋3丁目店","address":"埼玉県さいたま市大宮区三橋3丁目221-1","station_id":"287","rental_uris":{"ios":"https://www.hellocycling.jp/app/port/detail/287?referrer=odpt","web":"https://www.hellocycling.jp/app/port/detail/287?referrer=odpt","android":"https://www.hellocycling.jp/app/port/detail/287?referrer=odpt"},"parking_hoop":false,"parking_type":"street_parking","contact_phone":"+8105038218282","vehicle_capacity":"7","is_charging_station":false},{"lat":35.91876,"lon":139.61327,"name":"セブンイレブン　さいたま大成町3丁目店","address":"埼玉県さいたま市大宮区大成町3-545","station_id":"288","rental_uris":{"ios":"https://www.hellocycling.jp/app/port/detail/288?referrer=odpt","web":"https://www.hellocycling.jp/app/port/detail/288?referrer=odpt","android":"https://www.hellocycling.jp/app/port/detail/288?referrer=odpt"},"parking_hoop":false,"parking_type":"street_parking","contact_phone":"+8105038218282","vehicle_capacity":"4","is_charging_station":false},{"lat":35.919953,"lon":139.617038,"name":"セブンイレブン　鉄道博物館前店","address":"埼玉県さいたま市大宮区大成町3-263-1","station_id":"289","rental_uris":{"ios":"https://www.hellocycling.jp/app/port/detail/289?referrer=odpt","web":"https://www.hellocycling.jp/app/port/detail/289?referrer=odpt","android":"https://www.hellocycling.jp/app/port/detail/289?referrer=odpt"},"parking_hoop":false,"parking_type":"street_parking","contact_phone":"+8105038218282","vehicle_capacity":"5","is_charging_station":false},{"lat":35.911497,"lon":139.614996,"name":"セブンイレブン　さいたま大成町2丁目店","address":"埼玉県さいたま市大宮区大成町2-201-1","station_id":"290","rental_uris":{"ios":"https://www.hellocycling.jp/app/port/detail/290?referrer=odpt","web":"https://www.hellocycling.jp/app/port/detail/290?referrer=odpt","android":"https://www.hellocycling.jp/app/port/detail/290?referrer=odpt"},"parking_hoop":false,"parking_type":"street_parking","contact_phone":"+8105038218282","vehicle_capacity":"4","is_charging_station":false},{"lat":35.859671,"lon":139.652126,"name":"セブンイレブン　浦和裏門通り店","address":"埼玉県さいたま市浦和区仲町2-12-2","station_id":"291","rental_uris":{"ios":"https://www.hellocycling.jp/app/port/detail/291?referrer=odpt","web":"https://www.hellocycling.jp/app/port/detail/291?referrer=odpt","android":"https://www.hellocycling.jp/app/port/detail/291?referrer=odpt"},"parking_hoop":false,"parking_type":"street_parking","contact_phone":"+8105038218282","vehicle_capacity":"3","is_charging_station":false},{"lat":35.873153,"lon":139.65771,"name":"セブンイレブン　浦和元町2丁目店","address":"埼玉県さいたま市浦和区元町2-39-8","station_id":"292","rental_uris":{"ios":"https://www.hellocycling.jp/app/port/detail/292?referrer=odpt","web":"https://www.hellocycling.jp/app/port/detail/292?referrer=odpt","android":"https://www.hellocycling.jp/app/port/detail/292?referrer=odpt"},"parking_hoop":false,"parking_type":"street_parking","contact_phone":"+8105038218282","vehicle_capacity":"4","is_charging_station":false},{"lat":35.871649,"lon":139.674427,"name":"セブンイレブン　さいたま原山3丁目南店","address":"埼玉県さいたま市緑区原山3-14-21","station_id":"293","rental_uris":{"ios":"https://www.hellocycling.jp/app/port/detail/293?referrer=odpt","web":"https://www.hellocycling.jp/app/port/detail/293?referrer=odpt","android":"https://www.hellocycling.jp/app/port/detail/293?referrer=odpt"},"parking_hoop":false,"parking_type":"street_parking","contact_phone":"+8105038218282","vehicle_capacity":"7","is_charging_station":false},{"lat":35.8764655,"lon":139.6844904,"name":"セブンイレブン　さいたま中尾バイパス店","address":"埼玉県さいたま市緑区中尾1286-1","station_id":"294","rental_uris":{"ios":"https://www.hellocycling.jp/app/port/detail/294?referrer=odpt","web":"https://www.hellocycling.jp/app/port/detail/294?referrer=odpt","android":"https://www.hellocycling.jp/app/port/detail/294?referrer=odpt"},"parking_hoop":false,"parking_type":"street_parking","contact_phone":"+8105038218282","vehicle_capacity":"6","is_charging_station":false},{"lat":35.84164,"lon":139.67483,"name":"セブンイレブン　さいたま文蔵3丁目店","address":"埼玉県さいたま市南区文蔵3-2-3","station_id":"296","rental_uris":{"ios":"https://www.hellocycling.jp/app/port/detail/296?referrer=odpt","web":"https://www.hellocycling.jp/app/port/detail/296?referrer=odpt","android":"https://www.hellocycling.jp/app/port/detail/296?referrer=odpt"},"parking_hoop":false,"parking_type":"street_parking","contact_phone":"+8105038218282","vehicle_capacity":"2","is_charging_station":false},{"lat":35.951047,"lon":139.695907,"name":"セブンイレブン　岩槻本町店","address":"埼玉県さいたま市岩槻区本町3-7-6","station_id":"326","rental_uris":{"ios":"https://www.hellocycling.jp/app/port/detail/326?referrer=odpt","web":"https://www.hellocycling.jp/app/port/detail/326?referrer=odpt","android":"https://www.hellocycling.jp/app/port/detail/326?referrer=odpt"},"parking_hoop":false,"parking_type":"street_parking","contact_phone":"+8105038218282","vehicle_capacity":"10","is_charging_station":false},{"lat":35.802869,"lon":139.596042,"name":"朝霞市民会館","address":"埼玉県朝霞市本町1-26-1","station_id":"327","rental_uris":{"ios":"https://www.hellocycling.jp/app/port/detail/327?referrer=odpt","web":"https://www.hellocycling.jp/app/port/detail/327?referrer=odpt","android":"https://www.hellocycling.jp/app/port/detail/327?referrer=odpt"},"parking_hoop":false,"parking_type":"street_parking","contact_phone":"+8105038218282","vehicle_capacity":"10","is_charging_station":false},{"lat":35.911622,"lon":139.653418,"name":"セブンイレブン　さいたま南中丸店","address":"埼玉県さいたま市見沼区南中野635-1","station_id":"330","rental_uris":{"ios":"https://www.hellocycling.jp/app/port/detail/330?referrer=odpt","web":"https://www.hellocycling.jp/app/port/detail/330?referrer=odpt","android":"https://www.hellocycling.jp/app/port/detail/330?referrer=odpt"},"parking_hoop":false,"parking_type":"street_parking","contact_phone":"+8105038218282","vehicle_capacity":"6","is_charging_station":false},{"lat":35.894753,"lon":139.64225,"name":"セブンイレブン　さいたま北袋町2丁目店","address":"埼玉県さいたま市大宮区北袋町2-186-4","station_id":"332","rental_uris":{"ios":"https://www.hellocycling.jp/app/port/detail/332?referrer=odpt","web":"https://www.hellocycling.jp/app/port/detail/332?referrer=odpt","android":"https://www.hellocycling.jp/app/port/detail/332?referrer=odpt"},"parking_hoop":false,"parking_type":"street_parking","contact_phone":"+8105038218282","vehicle_capacity":"4","is_charging_station":false},{"lat":35.884783,"lon":139.604758,"name":"セブンイレブン　さいたま白鍬店","address":"埼玉県さいたま市桜区白鍬495-1","station_id":"333","rental_uris":{"ios":"https://www.hellocycling.jp/app/port/detail/333?referrer=odpt","web":"https://www.hellocycling.jp/app/port/detail/333?referrer=odpt","android":"https://www.hellocycling.jp/app/port/detail/333?referrer=odpt"},"parking_hoop":false,"parking_type":"street_parking","contact_phone":"+8105038218282","vehicle_capacity":"4","is_charging_station":false},{"lat":35.914832,"lon":139.598024,"name":"セブンイレブン　さいたま三橋総合公園前店","address":"埼玉県さいたま市大宮区三橋1-874","station_id":"335","rental_uris":{"ios":"https://www.hellocycling.jp/app/port/detail/335?referrer=odpt","web":"https://www.hellocycling.jp/app/port/detail/335?referrer=odpt","android":"https://www.hellocycling.jp/app/port/detail/335?referrer=odpt"},"parking_hoop":false,"parking_type":"street_parking","contact_phone":"+8105038218282","vehicle_capacity":"8","is_charging_station":false},{"lat":35.933895,"lon":139.620893,"name":"セブンイレブン　さいたま宮原1丁目西店","address":"埼玉県さいたま市北区宮原町1-129-1","station_id":"336","rental_uris":{"ios":"https://www.hellocycling.jp/app/port/detail/336?referrer=odpt","web":"https://www.hellocycling.jp/app/port/detail/336?referrer=odpt","android":"https://www.hellocycling.jp/app/port/detail/336?referrer=odpt"},"parking_hoop":false,"parking_type":"street_parking","contact_phone":"+8105038218282","vehicle_capacity":"13","is_charging_station":false},{"lat":35.945856,"lon":139.60302,"name":"セブンイレブン　大宮奈良町店","address":"埼玉県さいたま市北区奈良町31-13","station_id":"338","rental_uris":{"ios":"https://www.hellocycling.jp/app/port/detail/338?referrer=odpt","web":"https://www.hellocycling.jp/app/port/detail/338?referrer=odpt","android":"https://www.hellocycling.jp/app/port/detail/338?referrer=odpt"},"parking_hoop":false,"parking_type":"street_parking","contact_phone":"+8105038218282","vehicle_capacity":"8","is_charging_station":false},{"lat":35.852567,"lon":139.675421,"name":"セブンイレブン　さいたま大谷場店","address":"埼玉県さいたま市南区大谷場2-14-32","station_id":"341","rental_uris":{"ios":"https://www.hellocycling.jp/app/port/detail/341?referrer=odpt","web":"https://www.hellocycling.jp/app/port/detail/341?referrer=odpt","android":"https://www.hellocycling.jp/app/port/detail/341?referrer=odpt"},"parking_hoop":false,"parking_type":"street_parking","contact_phone":"+8105038218282","vehicle_capacity":"6","is_charging_station":false},{"lat":35.837645,"lon":139.663205,"name":"セブンイレブン　さいたま辻1丁目店","address":"埼玉県さいたま市南区辻1-27-8","station_id":"342","rental_uris":{"ios":"https://www.hellocycling.jp/app/port/detail/342?referrer=odpt","web":"https://www.hellocycling.jp/app/port/detail/342?referrer=odpt","android":"https://www.hellocycling.jp/app/port/detail/342?referrer=odpt"},"parking_hoop":false,"parking_type":"street_parking","contact_phone":"+8105038218282","vehicle_capacity":"6","is_charging_station":false},{"lat":35.849233,"lon":139.641611,"name":"セブンイレブン　さいたま鹿手袋3丁目店","address":"埼玉県さいたま市南区鹿手袋3-27-16","station_id":"344","rental_uris":{"ios":"https://www.hellocycling.jp/app/port/detail/344?referrer=odpt","web":"https://www.hellocycling.jp/app/port/detail/344?referrer=odpt","android":"https://www.hellocycling.jp/app/port/detail/344?referrer=odpt"},"parking_hoop":false,"parking_type":"street_parking","contact_phone":"+8105038218282","vehicle_capacity":"5","is_charging_station":false},{"lat":35.86973,"lon":139.633458,"name":"セブンイレブン　さいたま大戸6丁目店","address":"埼玉県さいたま市中央区大戸6-13-5","station_id":"347","rental_uris":{"ios":"https://www.hellocycling.jp/app/port/detail/347?referrer=odpt","web":"https://www.hellocycling.jp/app/port/detail/347?referrer=odpt","android":"https://www.hellocycling.jp/app/port/detail/347?referrer=odpt"},"parking_hoop":false,"parking_type":"street_parking","contact_phone":"+8105038218282","vehicle_capacity":"4","is_charging_station":false},{"lat":35.906043,"lon":139.627038,"name":"セブンイレブン　さいたま大宮駅東店(大宮駅近辺)","address":"埼玉県さいたま市大宮区仲町2-9","station_id":"356","rental_uris":{"ios":"https://www.hellocycling.jp/app/port/detail/356?referrer=odpt","web":"https://www.hellocycling.jp/app/port/detail/356?referrer=odpt","android":"https://www.hellocycling.jp/app/port/detail/356?referrer=odpt"},"parking_hoop":false,"parking_type":"street_parking","contact_phone":"+8105038218282","vehicle_capacity":"5","is_charging_station":false},{"lat":35.89071,"lon":139.623712,"name":"セブンイレブン　さいたま上落合3丁目店","address":"埼玉県さいたま市中央区上落合3-11-12","station_id":"357","rental_uris":{"ios":"https://www.hellocycling.jp/app/port/detail/357?referrer=odpt","web":"https://www.hellocycling.jp/app/port/detail/357?referrer=odpt","android":"https://www.hellocycling.jp/app/port/detail/357?referrer=odpt"},"parking_hoop":false,"parking_type":"street_parking","contact_phone":"+8105038218282","vehicle_capacity":"8","is_charging_station":false},{"lat":35.800941,"lon":139.612318,"name":"根岸台自然公園","address":"埼玉県朝霞市根岸台8-531-1","station_id":"359","rental_uris":{"ios":"https://www.hellocycling.jp/app/port/detail/359?referrer=odpt","web":"https://www.hellocycling.jp/app/port/detail/359?referrer=odpt","android":"https://www.hellocycling.jp/app/port/detail/359?referrer=odpt"},"parking_hoop":false,"parking_type":"street_parking","contact_phone":"+8105038218282","vehicle_capacity":"5","is_charging_station":false},{"lat":35.794957,"lon":139.610064,"name":"水久保公園","address":"埼玉県朝霞市根岸台7-24-14","station_id":"360","rental_uris":{"ios":"https://www.hellocycling.jp/app/port/detail/360?referrer=odpt","web":"https://www.hellocycling.jp/app/port/detail/360?referrer=odpt","android":"https://www.hellocycling.jp/app/port/detail/360?referrer=odpt"},"parking_hoop":false,"parking_type":"street_parking","contact_phone":"+8105038218282","vehicle_capacity":"5","is_charging_station":false},{"lat":35.863161,"lon":139.637766,"name":"セブンイレブン　さいたま大戸3丁目店","address":"埼玉県さいたま市中央区大戸3-2-18","station_id":"364","rental_uris":{"ios":"https://www.hellocycling.jp/app/port/detail/364?referrer=odpt","web":"https://www.hellocycling.jp/app/port/detail/364?referrer=odpt","android":"https://www.hellocycling.jp/app/port/detail/364?referrer=odpt"},"parking_hoop":false,"parking_type":"street_parking","contact_phone":"+8105038218282","vehicle_capacity":"8","is_charging_station":false},{"lat":35.857604,"lon":139.65424,"name":"セブンイレブン　浦和駅西口店(浦和駅近辺)","address":"埼玉県さいたま市浦和区高砂2-6-9","station_id":"366","rental_uris":{"ios":"https://www.hellocycling.jp/app/port/detail/366?referrer=odpt","web":"https://www.hellocycling.jp/app/port/detail/366?referrer=odpt","android":"https://www.hellocycling.jp/app/port/detail/366?referrer=odpt"},"parking_hoop":false,"parking_type":"street_parking","contact_phone":"+8105038218282","vehicle_capacity":"3","is_charging_station":false},{"lat":35.84887,"lon":139.665588,"name":"セブンイレブン　さいたま南本町2丁目店","address":"埼玉県さいたま市南区南本町2-20-13","station_id":"367","rental_uris":{"ios":"https://www.hellocycling.jp/app/port/detail/367?referrer=odpt","web":"https://www.hellocycling.jp/app/port/detail/367?referrer=odpt","android":"https://www.hellocycling.jp/app/port/detail/367?referrer=odpt"},"parking_hoop":false,"parking_type":"street_parking","contact_phone":"+8105038218282","vehicle_capacity":"2","is_charging_station":false},{"lat":35.866924,"lon":139.698643,"name":"セブンイレブン　東浦和3丁目店","address":"埼玉県さいたま市緑区東浦和3-19-1","station_id":"368","rental_uris":{"ios":"https://www.hellocycling.jp/app/port/detail/368?referrer=odpt","web":"https://www.hellocycling.jp/app/port/detail/368?referrer=odpt","android":"https://www.hellocycling.jp/app/port/detail/368?referrer=odpt"},"parking_hoop":false,"parking_type":"street_parking","contact_phone":"+8105038218282","vehicle_capacity":"5","is_charging_station":false},{"lat":35.882725,"lon":139.677518,"name":"セブンイレブン　さいたま三室店","address":"埼玉県さいたま市緑区大字三室1513-1","station_id":"370","rental_uris":{"ios":"https://www.hellocycling.jp/app/port/detail/370?referrer=odpt","web":"https://www.hellocycling.jp/app/port/detail/370?referrer=odpt","android":"https://www.hellocycling.jp/app/port/detail/370?referrer=odpt"},"parking_hoop":false,"parking_type":"street_parking","contact_phone":"+8105038218282","vehicle_capacity":"3","is_charging_station":false},{"lat":35.797028,"lon":139.600583,"name":"朝霞駅東口駅前広場(1)","address":"埼玉県朝霞市仲町2-1地内","station_id":"372","rental_uris":{"ios":"https://www.hellocycling.jp/app/port/detail/372?referrer=odpt","web":"https://www.hellocycling.jp/app/port/detail/372?referrer=odpt","android":"https://www.hellocycling.jp/app/port/detail/372?referrer=odpt"},"parking_hoop":false,"parking_type":"street_parking","contact_phone":"+8105038218282","vehicle_capacity":"32","is_charging_station":false},{"lat":35.891335,"lon":139.665099,"name":"セブンイレブン　さいたま山崎店","address":"埼玉県さいたま市緑区三室283","station_id":"375","rental_uris":{"ios":"https://www.hellocycling.jp/app/port/detail/375?referrer=odpt","web":"https://www.hellocycling.jp/app/port/detail/375?referrer=odpt","android":"https://www.hellocycling.jp/app/port/detail/375?referrer=odpt"},"parking_hoop":false,"parking_type":"street_parking","contact_phone":"+8105038218282","vehicle_capacity":"9","is_charging_station":false},{"lat":35.89506,"lon":139.60934,"name":"セブンイレブン　さいたま円阿弥7丁目店","address":"埼玉県さいたま市中央区円阿弥7-12-1","station_id":"376","rental_uris":{"ios":"https://www.hellocycling.jp/app/port/detail/376?referrer=odpt","web":"https://www.hellocycling.jp/app/port/detail/376?referrer=odpt","android":"https://www.hellocycling.jp/app/port/detail/376?referrer=odpt"},"parking_hoop":false,"parking_type":"street_parking","contact_phone":"+8105038218282","vehicle_capacity":"4","is_charging_station":false},{"lat":35.940414,"lon":139.608555,"name":"セブンイレブン　大宮宮原西口店","address":"埼玉県さいたま市北区宮原町3-536","station_id":"377","rental_uris":{"ios":"https://www.hellocycling.jp/app/port/detail/377?referrer=odpt","web":"https://www.hellocycling.jp/app/port/detail/377?referrer=odpt","android":"https://www.hellocycling.jp/app/port/detail/377?referrer=odpt"},"parking_hoop":false,"parking_type":"street_parking","contact_phone":"+8105038218282","vehicle_capacity":"6","is_charging_station":false},{"lat":35.875158,"lon":139.703291,"name":"セブンイレブン　さいたま大牧店","address":"埼玉県さいたま市緑区大字大牧1487-5","station_id":"381","rental_uris":{"ios":"https://www.hellocycling.jp/app/port/detail/381?referrer=odpt","web":"https://www.hellocycling.jp/app/port/detail/381?referrer=odpt","android":"https://www.hellocycling.jp/app/port/detail/381?referrer=odpt"},"parking_hoop":false,"parking_type":"street_parking","contact_phone":"+8105038218282","vehicle_capacity":"4","is_charging_station":false},{"lat":35.871784,"lon":139.691124,"name":"セブンイレブン　さいたま中尾店","address":"埼玉県さいたま市緑区東浦和9-20-15","station_id":"382","rental_uris":{"ios":"https://www.hellocycling.jp/app/port/detail/382?referrer=odpt","web":"https://www.hellocycling.jp/app/port/detail/382?referrer=odpt","android":"https://www.hellocycling.jp/app/port/detail/382?referrer=odpt"},"parking_hoop":false,"parking_type":"street_parking","contact_phone":"+8105038218282","vehicle_capacity":"6","is_charging_station":false},{"lat":35.88445,"lon":139.68641,"name":"セブンイレブン　さいたま松木2丁目店","address":"埼玉県さいたま市緑区松木2-3-3","station_id":"383","rental_uris":{"ios":"https://www.hellocycling.jp/app/port/detail/383?referrer=odpt","web":"https://www.hellocycling.jp/app/port/detail/383?referrer=odpt","android":"https://www.hellocycling.jp/app/port/detail/383?referrer=odpt"},"parking_hoop":false,"parking_type":"street_parking","contact_phone":"+8105038218282","vehicle_capacity":"10","is_charging_station":false},{"lat":35.833805,"lon":139.665972,"name":"セブンイレブン　さいたま辻7丁目店","address":"埼玉県さいたま市南区辻7-12-20","station_id":"384","rental_uris":{"ios":"https://www.hellocycling.jp/app/port/detail/384?referrer=odpt","web":"https://www.hellocycling.jp/app/port/detail/384?referrer=odpt","android":"https://www.hellocycling.jp/app/port/detail/384?referrer=odpt"},"parking_hoop":false,"parking_type":"street_parking","contact_phone":"+8105038218282","vehicle_capacity":"4","is_charging_station":false},{"lat":35.863025,"lon":139.614641,"name":"セブンイレブン　さいたま栄和2丁目店","address":"埼玉県さいたま市桜区栄和2-26-23","station_id":"386","rental_uris":{"ios":"https://www.hellocycling.jp/app/port/detail/386?referrer=odpt","web":"https://www.hellocycling.jp/app/port/detail/386?referrer=odpt","android":"https://www.hellocycling.jp/app/port/detail/386?referrer=odpt"},"parking_hoop":false,"parking_type":"street_parking","contact_phone":"+8105038218282","vehicle_capacity":"9","is_charging_station":false},{"lat":35.869029,"lon":139.608802,"name":"セブンイレブン　さいたま大久保店","address":"埼玉県さいたま市桜区大久保領家555-7","station_id":"387","rental_uris":{"ios":"https://www.hellocycling.jp/app/port/detail/387?referrer=odpt","web":"https://www.hellocycling.jp/app/port/detail/387?referrer=odpt","android":"https://www.hellocycling.jp/app/port/detail/387?referrer=odpt"},"parking_hoop":false,"parking_type":"street_parking","contact_phone":"+8105038218282","vehicle_capacity":"6","is_charging_station":false},{"lat":35.881451,"lon":139.670772,"name":"サイクルベースあさひ浦和東店","address":"埼玉県さいたま市緑区大字三室1199","station_id":"388","rental_uris":{"ios":"https://www.hellocycling.jp/app/port/detail/388?referrer=odpt","web":"https://www.hellocycling.jp/app/port/detail/388?referrer=odpt","android":"https://www.hellocycling.jp/app/port/detail/388?referrer=odpt"},"parking_hoop":false,"parking_type":"street_parking","contact_phone":"+8105038218282","vehicle_capacity":"18","is_charging_station":false},{"lat":35.878418,"lon":139.625046,"name":"サイクルベースあさひ与野本町店","address":"埼玉県さいたま市中央区鈴谷8-11-16","station_id":"389","rental_uris":{"ios":"https://www.hellocycling.jp/app/port/detail/389?referrer=odpt","web":"https://www.hellocycling.jp/app/port/detail/389?referrer=odpt","android":"https://www.hellocycling.jp/app/port/detail/389?referrer=odpt"},"parking_hoop":false,"parking_type":"street_parking","contact_phone":"+8105038218282","vehicle_capacity":"4","is_charging_station":false},{"lat":35.957594,"lon":139.716212,"name":"サイクルベースあさひ岩槻店","address":"埼玉県さいたま市岩槻区南平野2-1-2","station_id":"390","rental_uris":{"ios":"https://www.hellocycling.jp/app/port/detail/390?referrer=odpt","web":"https://www.hellocycling.jp/app/port/detail/390?referrer=odpt","android":"https://www.hellocycling.jp/app/port/detail/390?referrer=odpt"},"parking_hoop":false,"parking_type":"street_parking","contact_phone":"+8105038218282","vehicle_capacity":"5","is_charging_station":false},{"lat":35.840908,"lon":139.6351,"name":"サイクルベースあさひ武蔵浦和店","address":"埼玉県さいたま市南区四谷1-6-3","station_id":"391","rental_uris":{"ios":"https://www.hellocycling.jp/app/port/detail/391?referrer=odpt","web":"https://www.hellocycling.jp/app/port/detail/391?referrer=odpt","android":"https://www.hellocycling.jp/app/port/detail/391?referrer=odpt"},"parking_hoop":false,"parking_type":"street_parking","contact_phone":"+8105038218282","vehicle_capacity":"6","is_charging_station":false},{"lat":26.234912,"lon":127.681721,"name":"沖縄ヤマハ　店舗前駐輪場","address":"沖縄県那覇市１丁目８番１０号","station_id":"393","rental_uris":{"ios":"https://www.hellocycling.jp/app/port/detail/393?referrer=odpt","web":"https://www.hellocycling.jp/app/port/detail/393?referrer=odpt","android":"https://www.hellocycling.jp/app/port/detail/393?referrer=odpt"},"parking_hoop":false,"parking_type":"street_parking","contact_phone":"+8105038218282","vehicle_capacity":"6","is_charging_station":false},{"lat":35.796634,"lon":139.599473,"name":"朝霞駅南口駅前広場","address":"埼玉県朝霞市本町2-4地内","station_id":"394","rental_uris":{"ios":"https://www.hellocycling.jp/app/port/detail/394?referrer=odpt","web":"https://www.hellocycling.jp/app/port/detail/394?referrer=odpt","android":"https://www.hellocycling.jp/app/port/detail/394?referrer=odpt"},"parking_hoop":false,"parking_type":"street_parking","contact_phone":"+8105038218282","vehicle_capacity":"35","is_charging_station":false},{"lat":35.873194,"lon":139.673162,"name":"セブンイレブン　浦和原山3丁目店","address":"埼玉県さいたま市緑区原山3-6-23","station_id":"396","rental_uris":{"ios":"https://www.hellocycling.jp/app/port/detail/396?referrer=odpt","web":"https://www.hellocycling.jp/app/port/detail/396?referrer=odpt","android":"https://www.hellocycling.jp/app/port/detail/396?referrer=odpt"},"parking_hoop":false,"parking_type":"street_parking","contact_phone":"+8105038218282","vehicle_capacity":"8","is_charging_station":false},{"lat":35.866934,"lon":139.685857,"name":"セブンイレブン　さいたま中尾緑島店","address":"埼玉県さいたま市緑区中尾2501-1","station_id":"397","rental_uris":{"ios":"https://www.hellocycling.jp/app/port/detail/397?referrer=odpt","web":"https://www.hellocycling.jp/app/port/detail/397?referrer=odpt","android":"https://www.hellocycling.jp/app/port/detail/397?referrer=odpt"},"parking_hoop":false,"parking_type":"street_parking","contact_phone":"+8105038218282","vehicle_capacity":"5","is_charging_station":false},{"lat":35.851662,"lon":139.670401,"name":"セブンイレブン　南浦和1丁目店","address":"埼玉県さいたま市南区南浦和1-30-26","station_id":"398","rental_uris":{"ios":"https://www.hellocycling.jp/app/port/detail/398?referrer=odpt","web":"https://www.hellocycling.jp/app/port/detail/398?referrer=odpt","android":"https://www.hellocycling.jp/app/port/detail/398?referrer=odpt"},"parking_hoop":false,"parking_type":"street_parking","contact_phone":"+8105038218282","vehicle_capacity":"4","is_charging_station":false},{"lat":35.910801,"lon":139.6061361,"name":"セブンイレブン　さいたま櫛引町1丁目南店","address":"埼玉県さいたま市大宮区櫛引町1-496-1","station_id":"399","rental_uris":{"ios":"https://www.hellocycling.jp/app/port/detail/399?referrer=odpt","web":"https://www.hellocycling.jp/app/port/detail/399?referrer=odpt","android":"https://www.hellocycling.jp/app/port/detail/399?referrer=odpt"},"parking_hoop":false,"parking_type":"street_parking","contact_phone":"+8105038218282","vehicle_capacity":"3","is_charging_station":false},{"lat":26.223355,"lon":127.698659,"name":"レキオスおもろまち駅前ビル バス停前","address":"沖縄県那覇市真嘉比1-1-1","station_id":"400","rental_uris":{"ios":"https://www.hellocycling.jp/app/port/detail/400?referrer=odpt","web":"https://www.hellocycling.jp/app/port/detail/400?referrer=odpt","android":"https://www.hellocycling.jp/app/port/detail/400?referrer=odpt"},"parking_hoop":false,"parking_type":"street_parking","contact_phone":"+8105038218282","vehicle_capacity":"10","is_charging_station":false},{"lat":26.225545,"lon":127.699053,"name":"レキオス本社前","address":"沖縄県那覇市おもろまち4-19-16","station_id":"401","rental_uris":{"ios":"https://www.hellocycling.jp/app/port/detail/401?referrer=odpt","web":"https://www.hellocycling.jp/app/port/detail/401?referrer=odpt","android":"https://www.hellocycling.jp/app/port/detail/401?referrer=odpt"},"parking_hoop":false,"parking_type":"street_parking","contact_phone":"+8105038218282","vehicle_capacity":"6","is_charging_station":false},{"lat":26.215299,"lon":127.696652,"name":"那覇市安里　グランデュール安里","address":"沖縄県那覇市安里406","station_id":"408","rental_uris":{"ios":"https://www.hellocycling.jp/app/port/detail/408?referrer=odpt","web":"https://www.hellocycling.jp/app/port/detail/408?referrer=odpt","android":"https://www.hellocycling.jp/app/port/detail/408?referrer=odpt"},"parking_hoop":false,"parking_type":"street_parking","contact_phone":"+8105038218282","vehicle_capacity":"2","is_charging_station":false},{"lat":35.796555,"lon":139.594479,"name":"朝霞市役所","address":"埼玉県朝霞市本町1-1-1","station_id":"416","rental_uris":{"ios":"https://www.hellocycling.jp/app/port/detail/416?referrer=odpt","web":"https://www.hellocycling.jp/app/port/detail/416?referrer=odpt","android":"https://www.hellocycling.jp/app/port/detail/416?referrer=odpt"},"parking_hoop":false,"parking_type":"street_parking","contact_phone":"+8105038218282","vehicle_capacity":"12","is_charging_station":false},{"lat":34.6080201,"lon":135.552813,"name":"セブンイレブン　喜連瓜破駅南店","address":"大阪府大阪市平野区瓜破2-2-58","station_id":"419","rental_uris":{"ios":"https://www.hellocycling.jp/app/port/detail/419?referrer=odpt","web":"https://www.hellocycling.jp/app/port/detail/419?referrer=odpt","android":"https://www.hellocycling.jp/app/port/detail/419?referrer=odpt"},"parking_hoop":false,"parking_type":"street_parking","contact_phone":"+8105038218282","vehicle_capacity":"6","is_charging_station":false},{"lat":34.718839,"lon":135.415234,"name":"阪神尼崎駅西　アマスタアマセン高架下駐輪場","address":"兵庫県尼崎市神田中通2-28","station_id":"421","rental_uris":{"ios":"https://www.hellocycling.jp/app/port/detail/421?referrer=odpt","web":"https://www.hellocycling.jp/app/port/detail/421?referrer=odpt","android":"https://www.hellocycling.jp/app/port/detail/421?referrer=odpt"},"parking_hoop":false,"parking_type":"street_parking","contact_phone":"+8105038218282","vehicle_capacity":"3","is_charging_station":true},{"lat":34.718015,"lon":135.395969,"name":"阪神尼崎センタープール前駐輪場","address":"兵庫県尼崎市水明町373-6","station_id":"422","rental_uris":{"ios":"https://www.hellocycling.jp/app/port/detail/422?referrer=odpt","web":"https://www.hellocycling.jp/app/port/detail/422?referrer=odpt","android":"https://www.hellocycling.jp/app/port/detail/422?referrer=odpt"},"parking_hoop":false,"parking_type":"street_parking","contact_phone":"+8105038218282","vehicle_capacity":"5","is_charging_station":false},{"lat":35.833127,"lon":139.640978,"name":"セブンイレブン　浦和内谷4丁目店","address":"埼玉県さいたま市南区内谷4-19-1","station_id":"432","rental_uris":{"ios":"https://www.hellocycling.jp/app/port/detail/432?referrer=odpt","web":"https://www.hellocycling.jp/app/port/detail/432?referrer=odpt","android":"https://www.hellocycling.jp/app/port/detail/432?referrer=odpt"},"parking_hoop":false,"parking_type":"street_parking","contact_phone":"+8105038218282","vehicle_capacity":"2","is_charging_station":false},{"lat":35.833013,"lon":139.676836,"name":"セブンイレブン　さいたま文蔵5丁目店","address":"埼玉県さいたま市南区文蔵5-6-10","station_id":"433","rental_uris":{"ios":"https://www.hellocycling.jp/app/port/detail/433?referrer=odpt","web":"https://www.hellocycling.jp/app/port/detail/433?referrer=odpt","android":"https://www.hellocycling.jp/app/port/detail/433?referrer=odpt"},"parking_hoop":false,"parking_type":"street_parking","contact_phone":"+8105038218282","vehicle_capacity":"4","is_charging_station":false},{"lat":35.793326,"lon":139.596358,"name":"朝霞市立図書館","address":"埼玉県朝霞市青葉台1-7-26","station_id":"434","rental_uris":{"ios":"https://www.hellocycling.jp/app/port/detail/434?referrer=odpt","web":"https://www.hellocycling.jp/app/port/detail/434?referrer=odpt","android":"https://www.hellocycling.jp/app/port/detail/434?referrer=odpt"},"parking_hoop":false,"parking_type":"street_parking","contact_phone":"+8105038218282","vehicle_capacity":"4","is_charging_station":false},{"lat":35.561665,"lon":139.558185,"name":"セブンイレブン　横浜荏田町店","address":"神奈川県横浜市青葉区荏田町1410-1","station_id":"436","rental_uris":{"ios":"https://www.hellocycling.jp/app/port/detail/436?referrer=odpt","web":"https://www.hellocycling.jp/app/port/detail/436?referrer=odpt","android":"https://www.hellocycling.jp/app/port/detail/436?referrer=odpt"},"parking_hoop":false,"parking_type":"street_parking","contact_phone":"+8105038218282","vehicle_capacity":"6","is_charging_station":false},{"lat":35.567965,"lon":139.624953,"name":"セブンイレブン　川崎久末店","address":"神奈川県川崎市高津区久末2148","station_id":"446","rental_uris":{"ios":"https://www.hellocycling.jp/app/port/detail/446?referrer=odpt","web":"https://www.hellocycling.jp/app/port/detail/446?referrer=odpt","android":"https://www.hellocycling.jp/app/port/detail/446?referrer=odpt"},"parking_hoop":false,"parking_type":"street_parking","contact_phone":"+8105038218282","vehicle_capacity":"5","is_charging_station":false},{"lat":35.517955,"lon":139.713702,"name":"セブンイレブン　川崎鋼管通店","address":"神奈川県川崎市川崎区鋼管通1-3-8","station_id":"449","rental_uris":{"ios":"https://www.hellocycling.jp/app/port/detail/449?referrer=odpt","web":"https://www.hellocycling.jp/app/port/detail/449?referrer=odpt","android":"https://www.hellocycling.jp/app/port/detail/449?referrer=odpt"},"parking_hoop":false,"parking_type":"street_parking","contact_phone":"+8105038218282","vehicle_capacity":"6","is_charging_station":false},{"lat":35.510292,"lon":139.703231,"name":"セブンイレブン　川崎小田店","address":"神奈川県川崎市川崎区小田5-27-12","station_id":"450","rental_uris":{"ios":"https://www.hellocycling.jp/app/port/detail/450?referrer=odpt","web":"https://www.hellocycling.jp/app/port/detail/450?referrer=odpt","android":"https://www.hellocycling.jp/app/port/detail/450?referrer=odpt"},"parking_hoop":false,"parking_type":"street_parking","contact_phone":"+8105038218282","vehicle_capacity":"4","is_charging_station":false},{"lat":35.529702,"lon":139.720957,"name":"セブンイレブン　川崎藤崎店","address":"神奈川県川崎市川崎区藤崎1-12-9","station_id":"451","rental_uris":{"ios":"https://www.hellocycling.jp/app/port/detail/451?referrer=odpt","web":"https://www.hellocycling.jp/app/port/detail/451?referrer=odpt","android":"https://www.hellocycling.jp/app/port/detail/451?referrer=odpt"},"parking_hoop":false,"parking_type":"street_parking","contact_phone":"+8105038218282","vehicle_capacity":"4","is_charging_station":false},{"lat":35.79264,"lon":139.59438,"name":"朝霞中央公園","address":"埼玉県朝霞市青葉台1-9-1","station_id":"484","rental_uris":{"ios":"https://www.hellocycling.jp/app/port/detail/484?referrer=odpt","web":"https://www.hellocycling.jp/app/port/detail/484?referrer=odpt","android":"https://www.hellocycling.jp/app/port/detail/484?referrer=odpt"},"parking_hoop":false,"parking_type":"street_parking","contact_phone":"+8105038218282","vehicle_capacity":"6","is_charging_station":false},{"lat":35.797051,"lon":139.601694,"name":"朝霞駅東口駅前広場(2)","address":"埼玉県朝霞市仲町2-2-34","station_id":"486","rental_uris":{"ios":"https://www.hellocycling.jp/app/port/detail/486?referrer=odpt","web":"https://www.hellocycling.jp/app/port/detail/486?referrer=odpt","android":"https://www.hellocycling.jp/app/port/detail/486?referrer=odpt"},"parking_hoop":false,"parking_type":"street_parking","contact_phone":"+8105038218282","vehicle_capacity":"9","is_charging_station":false},{"lat":35.794322,"lon":139.584821,"name":"膝折市民センター","address":"埼玉県朝霞市膝折町1-7-40","station_id":"487","rental_uris":{"ios":"https://www.hellocycling.jp/app/port/detail/487?referrer=odpt","web":"https://www.hellocycling.jp/app/port/detail/487?referrer=odpt","android":"https://www.hellocycling.jp/app/port/detail/487?referrer=odpt"},"parking_hoop":false,"parking_type":"street_parking","contact_phone":"+8105038218282","vehicle_capacity":"5","is_charging_station":false},{"lat":35.457189,"lon":139.595768,"name":"セブンイレブン　横浜星川駅南店","address":"神奈川県横浜市保土ケ谷区星川1-3-20","station_id":"494","rental_uris":{"ios":"https://www.hellocycling.jp/app/port/detail/494?referrer=odpt","web":"https://www.hellocycling.jp/app/port/detail/494?referrer=odpt","android":"https://www.hellocycling.jp/app/port/detail/494?referrer=odpt"},"parking_hoop":false,"parking_type":"street_parking","contact_phone":"+8105038218282","vehicle_capacity":"7","is_charging_station":false},{"lat":35.44566,"lon":139.59644,"name":"セブンイレブン　横浜帷子町2丁目店","address":"神奈川県横浜市保土ケ谷区帷子町2-105","station_id":"495","rental_uris":{"ios":"https://www.hellocycling.jp/app/port/detail/495?referrer=odpt","web":"https://www.hellocycling.jp/app/port/detail/495?referrer=odpt","android":"https://www.hellocycling.jp/app/port/detail/495?referrer=odpt"},"parking_hoop":false,"parking_type":"street_parking","contact_phone":"+8105038218282","vehicle_capacity":"4","is_charging_station":false},{"lat":35.614852,"lon":139.60158,"name":"セブンイレブン　川崎宇奈根店","address":"神奈川県川崎市高津区宇奈根618-2","station_id":"500","rental_uris":{"ios":"https://www.hellocycling.jp/app/port/detail/500?referrer=odpt","web":"https://www.hellocycling.jp/app/port/detail/500?referrer=odpt","android":"https://www.hellocycling.jp/app/port/detail/500?referrer=odpt"},"parking_hoop":false,"parking_type":"street_parking","contact_phone":"+8105038218282","vehicle_capacity":"4","is_charging_station":false},{"lat":35.893282,"lon":139.727795,"name":"浦和美園駅西口","address":"埼玉県さいたま市緑区美園4-12","station_id":"636","rental_uris":{"ios":"https://www.hellocycling.jp/app/port/detail/636?referrer=odpt","web":"https://www.hellocycling.jp/app/port/detail/636?referrer=odpt","android":"https://www.hellocycling.jp/app/port/detail/636?referrer=odpt"},"parking_hoop":false,"parking_type":"street_parking","contact_phone":"+8105038218282","vehicle_capacity":"10","is_charging_station":false},{"lat":35.902104,"lon":139.73126,"name":"ウニクス浦和美園","address":"埼玉県さいたま市岩槻区美園東2-17-13","station_id":"637","rental_uris":{"ios":"https://www.hellocycling.jp/app/port/detail/637?referrer=odpt","web":"https://www.hellocycling.jp/app/port/detail/637?referrer=odpt","android":"https://www.hellocycling.jp/app/port/detail/637?referrer=odpt"},"parking_hoop":false,"parking_type":"street_parking","contact_phone":"+8105038218282","vehicle_capacity":"6","is_charging_station":false},{"lat":35.648569,"lon":139.717327,"name":"ル・サイク広尾店","address":"東京都渋谷区広尾1-10-8","station_id":"662","rental_uris":{"ios":"https://www.hellocycling.jp/app/port/detail/662?referrer=odpt","web":"https://www.hellocycling.jp/app/port/detail/662?referrer=odpt","android":"https://www.hellocycling.jp/app/port/detail/662?referrer=odpt"},"parking_hoop":false,"parking_type":"street_parking","contact_phone":"+8105038218282","vehicle_capacity":"2","is_charging_station":false},{"lat":35.528194,"lon":139.633805,"name":"セブンイレブン　横浜樽町店","address":"神奈川県横浜市港北区樽町1-23-9","station_id":"663","rental_uris":{"ios":"https://www.hellocycling.jp/app/port/detail/663?referrer=odpt","web":"https://www.hellocycling.jp/app/port/detail/663?referrer=odpt","android":"https://www.hellocycling.jp/app/port/detail/663?referrer=odpt"},"parking_hoop":false,"parking_type":"street_parking","contact_phone":"+8105038218282","vehicle_capacity":"6","is_charging_station":false},{"lat":35.556879,"lon":139.644186,"name":"セブンイレブン　横浜日吉1丁目店","address":"神奈川県横浜市港北区日吉1-1-14","station_id":"664","rental_uris":{"ios":"https://www.hellocycling.jp/app/port/detail/664?referrer=odpt","web":"https://www.hellocycling.jp/app/port/detail/664?referrer=odpt","android":"https://www.hellocycling.jp/app/port/detail/664?referrer=odpt"},"parking_hoop":false,"parking_type":"street_parking","contact_phone":"+8105038218282","vehicle_capacity":"4","is_charging_station":false},{"lat":35.549943,"lon":139.620499,"name":"セブンイレブン　横浜高田東3丁目店","address":"神奈川県横浜市港北区高田東3-2-17","station_id":"665","rental_uris":{"ios":"https://www.hellocycling.jp/app/port/detail/665?referrer=odpt","web":"https://www.hellocycling.jp/app/port/detail/665?referrer=odpt","android":"https://www.hellocycling.jp/app/port/detail/665?referrer=odpt"},"parking_hoop":false,"parking_type":"street_parking","contact_phone":"+8105038218282","vehicle_capacity":"6","is_charging_station":false},{"lat":35.869922,"lon":139.70519,"name":"セブンイレブン　東浦和7丁目店","address":"埼玉県さいたま市緑区東浦和7-19-1","station_id":"666","rental_uris":{"ios":"https://www.hellocycling.jp/app/port/detail/666?referrer=odpt","web":"https://www.hellocycling.jp/app/port/detail/666?referrer=odpt","android":"https://www.hellocycling.jp/app/port/detail/666?referrer=odpt"},"parking_hoop":false,"parking_type":"street_parking","contact_phone":"+8105038218282","vehicle_capacity":"4","is_charging_station":false},{"lat":35.864453,"lon":139.700891,"name":"セブンイレブン　東浦和駅北通り店","address":"埼玉県さいたま市緑区東浦和3-1-1","station_id":"668","rental_uris":{"ios":"https://www.hellocycling.jp/app/port/detail/668?referrer=odpt","web":"https://www.hellocycling.jp/app/port/detail/668?referrer=odpt","android":"https://www.hellocycling.jp/app/port/detail/668?referrer=odpt"},"parking_hoop":false,"parking_type":"street_parking","contact_phone":"+8105038218282","vehicle_capacity":"5","is_charging_station":false},{"lat":35.806744,"lon":139.605124,"name":"根岸台市民センター","address":"埼玉県朝霞市根岸台2-15-12","station_id":"671","rental_uris":{"ios":"https://www.hellocycling.jp/app/port/detail/671?referrer=odpt","web":"https://www.hellocycling.jp/app/port/detail/671?referrer=odpt","android":"https://www.hellocycling.jp/app/port/detail/671?referrer=odpt"},"parking_hoop":false,"parking_type":"street_parking","contact_phone":"+8105038218282","vehicle_capacity":"4","is_charging_station":false},{"lat":35.544743,"lon":139.616945,"name":"セブンイレブン　横浜新吉田東3丁目店","address":"神奈川県横浜市港北区新吉田東3-37-21","station_id":"672","rental_uris":{"ios":"https://www.hellocycling.jp/app/port/detail/672?referrer=odpt","web":"https://www.hellocycling.jp/app/port/detail/672?referrer=odpt","android":"https://www.hellocycling.jp/app/port/detail/672?referrer=odpt"},"parking_hoop":false,"parking_type":"street_parking","contact_phone":"+8105038218282","vehicle_capacity":"5","is_charging_station":false},{"lat":35.807691,"lon":139.587157,"name":"溝沼市民センター","address":"埼玉県朝霞市大字溝沼1057-3","station_id":"673","rental_uris":{"ios":"https://www.hellocycling.jp/app/port/detail/673?referrer=odpt","web":"https://www.hellocycling.jp/app/port/detail/673?referrer=odpt","android":"https://www.hellocycling.jp/app/port/detail/673?referrer=odpt"},"parking_hoop":false,"parking_type":"street_parking","contact_phone":"+8105038218282","vehicle_capacity":"4","is_charging_station":false},{"lat":35.574361,"lon":139.54995,"name":"セブンイレブン　横浜美しが丘5丁目店","address":"神奈川県横浜市青葉区美しが丘5-30-1","station_id":"674","rental_uris":{"ios":"https://www.hellocycling.jp/app/port/detail/674?referrer=odpt","web":"https://www.hellocycling.jp/app/port/detail/674?referrer=odpt","android":"https://www.hellocycling.jp/app/port/detail/674?referrer=odpt"},"parking_hoop":false,"parking_type":"street_parking","contact_phone":"+8105038218282","vehicle_capacity":"8","is_charging_station":false},{"lat":35.500731,"lon":139.657041,"name":"セブンイレブン　横浜鶴見東寺尾3丁目店","address":"神奈川県横浜市鶴見区東寺尾3-16-7","station_id":"679","rental_uris":{"ios":"https://www.hellocycling.jp/app/port/detail/679?referrer=odpt","web":"https://www.hellocycling.jp/app/port/detail/679?referrer=odpt","android":"https://www.hellocycling.jp/app/port/detail/679?referrer=odpt"},"parking_hoop":false,"parking_type":"street_parking","contact_phone":"+8105038218282","vehicle_capacity":"5","is_charging_station":false},{"lat":35.450475,"lon":139.502806,"name":"セブンイレブン　横浜阿久和西店","address":"神奈川県横浜市瀬谷区阿久和西2-60-4","station_id":"684","rental_uris":{"ios":"https://www.hellocycling.jp/app/port/detail/684?referrer=odpt","web":"https://www.hellocycling.jp/app/port/detail/684?referrer=odpt","android":"https://www.hellocycling.jp/app/port/detail/684?referrer=odpt"},"parking_hoop":false,"parking_type":"street_parking","contact_phone":"+8105038218282","vehicle_capacity":"6","is_charging_station":false},{"lat":35.583384,"lon":139.655523,"name":"セブンイレブン　川崎小杉陣屋町2丁目店","address":"神奈川県川崎市中原区小杉陣屋町2-6-28","station_id":"686","rental_uris":{"ios":"https://www.hellocycling.jp/app/port/detail/686?referrer=odpt","web":"https://www.hellocycling.jp/app/port/detail/686?referrer=odpt","android":"https://www.hellocycling.jp/app/port/detail/686?referrer=odpt"},"parking_hoop":false,"parking_type":"street_parking","contact_phone":"+8105038218282","vehicle_capacity":"10","is_charging_station":false},{"lat":35.60201,"lon":139.603841,"name":"セブンイレブン　川崎津田山店","address":"神奈川県川崎市高津区下作延7-2-5","station_id":"687","rental_uris":{"ios":"https://www.hellocycling.jp/app/port/detail/687?referrer=odpt","web":"https://www.hellocycling.jp/app/port/detail/687?referrer=odpt","android":"https://www.hellocycling.jp/app/port/detail/687?referrer=odpt"},"parking_hoop":false,"parking_type":"street_parking","contact_phone":"+8105038218282","vehicle_capacity":"14","is_charging_station":false},{"lat":34.849217,"lon":138.253182,"name":"駅南サイクルパーク","address":"静岡県藤枝市田沼1-1-1","station_id":"689","rental_uris":{"ios":"https://www.hellocycling.jp/app/port/detail/689?referrer=odpt","web":"https://www.hellocycling.jp/app/port/detail/689?referrer=odpt","android":"https://www.hellocycling.jp/app/port/detail/689?referrer=odpt"},"parking_hoop":false,"parking_type":"street_parking","contact_phone":"+8105038218282","vehicle_capacity":"8","is_charging_station":false},{"lat":34.867845,"lon":138.256963,"name":"藤枝市役所","address":"静岡県藤枝市岡出山1-11-1","station_id":"690","rental_uris":{"ios":"https://www.hellocycling.jp/app/port/detail/690?referrer=odpt","web":"https://www.hellocycling.jp/app/port/detail/690?referrer=odpt","android":"https://www.hellocycling.jp/app/port/detail/690?referrer=odpt"},"parking_hoop":false,"parking_type":"street_parking","contact_phone":"+8105038218282","vehicle_capacity":"8","is_charging_station":false},{"lat":34.874233,"lon":138.259014,"name":"蓮華寺池公園","address":"静岡県藤枝市若王子474-1","station_id":"691","rental_uris":{"ios":"https://www.hellocycling.jp/app/port/detail/691?referrer=odpt","web":"https://www.hellocycling.jp/app/port/detail/691?referrer=odpt","android":"https://www.hellocycling.jp/app/port/detail/691?referrer=odpt"},"parking_hoop":false,"parking_type":"street_parking","contact_phone":"+8105038218282","vehicle_capacity":"8","is_charging_station":false},{"lat":35.872826,"lon":139.646923,"name":"セブンイレブン　北浦和3丁目店","address":"埼玉県さいたま市浦和区北浦和3-5-14","station_id":"747","rental_uris":{"ios":"https://www.hellocycling.jp/app/port/detail/747?referrer=odpt","web":"https://www.hellocycling.jp/app/port/detail/747?referrer=odpt","android":"https://www.hellocycling.jp/app/port/detail/747?referrer=odpt"},"parking_hoop":false,"parking_type":"street_parking","contact_phone":"+8105038218282","vehicle_capacity":"10","is_charging_station":false},{"lat":35.704099,"lon":139.617042,"name":"セブンイレブン　荻窪駅前店","address":"東京都杉並区荻窪5-16-7","station_id":"748","rental_uris":{"ios":"https://www.hellocycling.jp/app/port/detail/748?referrer=odpt","web":"https://www.hellocycling.jp/app/port/detail/748?referrer=odpt","android":"https://www.hellocycling.jp/app/port/detail/748?referrer=odpt"},"parking_hoop":false,"parking_type":"street_parking","contact_phone":"+8105038218282","vehicle_capacity":"4","is_charging_station":false},{"lat":35.572679,"lon":139.700917,"name":"サイクルスポット池上店","address":"東京都大田区大田区池上7-1-1","station_id":"764","rental_uris":{"ios":"https://www.hellocycling.jp/app/port/detail/764?referrer=odpt","web":"https://www.hellocycling.jp/app/port/detail/764?referrer=odpt","android":"https://www.hellocycling.jp/app/port/detail/764?referrer=odpt"},"parking_hoop":false,"parking_type":"street_parking","contact_phone":"+8105038218282","vehicle_capacity":"4","is_charging_station":false},{"lat":34.718364,"lon":135.416967,"name":"阪神尼崎駅南口","address":"兵庫県尼崎市東御園町93","station_id":"825","rental_uris":{"ios":"https://www.hellocycling.jp/app/port/detail/825?referrer=odpt","web":"https://www.hellocycling.jp/app/port/detail/825?referrer=odpt","android":"https://www.hellocycling.jp/app/port/detail/825?referrer=odpt"},"parking_hoop":false,"parking_type":"street_parking","contact_phone":"+8105038218282","vehicle_capacity":"7","is_charging_station":true},{"lat":34.685333,"lon":135.458336,"name":"阪神千鳥橋駅前広場駐輪場","address":"大阪府大阪市此花区四貫島1-1-4","station_id":"826","rental_uris":{"ios":"https://www.hellocycling.jp/app/port/detail/826?referrer=odpt","web":"https://www.hellocycling.jp/app/port/detail/826?referrer=odpt","android":"https://www.hellocycling.jp/app/port/detail/826?referrer=odpt"},"parking_hoop":false,"parking_type":"street_parking","contact_phone":"+8105038218282","vehicle_capacity":"5","is_charging_station":false},{"lat":35.6121085,"lon":140.1158952,"name":"JR千葉駅東口駅前大通り(2)","address":"千葉県千葉市中央区富士見2-2-3","station_id":"847","rental_uris":{"ios":"https://www.hellocycling.jp/app/port/detail/847?referrer=odpt","web":"https://www.hellocycling.jp/app/port/detail/847?referrer=odpt","android":"https://www.hellocycling.jp/app/port/detail/847?referrer=odpt"},"parking_hoop":false,"parking_type":"street_parking","contact_phone":"+8105038218282","vehicle_capacity":"5","is_charging_station":false},{"lat":35.6111236,"lon":140.118097,"name":"JR千葉駅東口駅前大通り(3)","address":"千葉県千葉市中央区富士見2-6-8 ","station_id":"848","rental_uris":{"ios":"https://www.hellocycling.jp/app/port/detail/848?referrer=odpt","web":"https://www.hellocycling.jp/app/port/detail/848?referrer=odpt","android":"https://www.hellocycling.jp/app/port/detail/848?referrer=odpt"},"parking_hoop":false,"parking_type":"street_parking","contact_phone":"+8105038218282","vehicle_capacity":"5","is_charging_station":false},{"lat":35.6133718,"lon":140.1119148,"name":"JR千葉駅西口駅前広場(1)","address":"千葉県千葉市中央区新千葉1-4-2 ","station_id":"850","rental_uris":{"ios":"https://www.hellocycling.jp/app/port/detail/850?referrer=odpt","web":"https://www.hellocycling.jp/app/port/detail/850?referrer=odpt","android":"https://www.hellocycling.jp/app/port/detail/850?referrer=odpt"},"parking_hoop":false,"parking_type":"street_parking","contact_phone":"+8105038218282","vehicle_capacity":"9","is_charging_station":false},{"lat":35.612543061281,"lon":140.11153781295,"name":"JR千葉駅西口駅前広場(2)","address":"千葉県千葉市中央区新千葉1-6-1 ","station_id":"851","rental_uris":{"ios":"https://www.hellocycling.jp/app/port/detail/851?referrer=odpt","web":"https://www.hellocycling.jp/app/port/detail/851?referrer=odpt","android":"https://www.hellocycling.jp/app/port/detail/851?referrer=odpt"},"parking_hoop":false,"parking_type":"street_parking","contact_phone":"+8105038218282","vehicle_capacity":"7","is_charging_station":false},{"lat":35.613728,"lon":140.1133867,"name":"JR千葉駅北口駅前広場①","address":"千葉県千葉市中央区弁天1-1-5","station_id":"852","rental_uris":{"ios":"https://www.hellocycling.jp/app/port/detail/852?referrer=odpt","web":"https://www.hellocycling.jp/app/port/detail/852?referrer=odpt","android":"https://www.hellocycling.jp/app/port/detail/852?referrer=odpt"},"parking_hoop":false,"parking_type":"street_parking","contact_phone":"+8105038218282","vehicle_capacity":"20","is_charging_station":false},{"lat":35.607127,"lon":140.108344,"name":"千葉中央コミュニティセンター(1)","address":"千葉県千葉市中央区千葉港2-1　","station_id":"855","rental_uris":{"ios":"https://www.hellocycling.jp/app/port/detail/855?referrer=odpt","web":"https://www.hellocycling.jp/app/port/detail/855?referrer=odpt","android":"https://www.hellocycling.jp/app/port/detail/855?referrer=odpt"},"parking_hoop":false,"parking_type":"street_parking","contact_phone":"+8105038218282","vehicle_capacity":"6","is_charging_station":false},{"lat":35.6091929,"lon":140.1246855,"name":"千葉市美術館","address":"千葉県千葉市中央区中央3-10-8","station_id":"856","rental_uris":{"ios":"https://www.hellocycling.jp/app/port/detail/856?referrer=odpt","web":"https://www.hellocycling.jp/app/port/detail/856?referrer=odpt","android":"https://www.hellocycling.jp/app/port/detail/856?referrer=odpt"},"parking_hoop":false,"parking_type":"street_parking","contact_phone":"+8105038218282","vehicle_capacity":"32","is_charging_station":false},{"lat":35.607986,"lon":140.101812,"name":"JR千葉みなと駅北口第2駐輪場","address":"千葉県千葉市中央区千葉港1-1-2","station_id":"857","rental_uris":{"ios":"https://www.hellocycling.jp/app/port/detail/857?referrer=odpt","web":"https://www.hellocycling.jp/app/port/detail/857?referrer=odpt","android":"https://www.hellocycling.jp/app/port/detail/857?referrer=odpt"},"parking_hoop":false,"parking_type":"street_parking","contact_phone":"+8105038218282","vehicle_capacity":"7","is_charging_station":false},{"lat":35.602583,"lon":139.628932,"name":"セブンイレブン　川崎高津諏訪店","address":"神奈川県川崎市高津区諏訪2-11-16","station_id":"860","rental_uris":{"ios":"https://www.hellocycling.jp/app/port/detail/860?referrer=odpt","web":"https://www.hellocycling.jp/app/port/detail/860?referrer=odpt","android":"https://www.hellocycling.jp/app/port/detail/860?referrer=odpt"},"parking_hoop":false,"parking_type":"street_parking","contact_phone":"+8105038218282","vehicle_capacity":"8","is_charging_station":false},{"lat":35.568125,"lon":139.663226,"name":"セブンイレブン　川崎中原市ノ坪店","address":"神奈川県川崎市中原区市ノ坪381-1","station_id":"861","rental_uris":{"ios":"https://www.hellocycling.jp/app/port/detail/861?referrer=odpt","web":"https://www.hellocycling.jp/app/port/detail/861?referrer=odpt","android":"https://www.hellocycling.jp/app/port/detail/861?referrer=odpt"},"parking_hoop":false,"parking_type":"street_parking","contact_phone":"+8105038218282","vehicle_capacity":"12","is_charging_station":false},{"lat":35.563719,"lon":139.64034,"name":"セブンイレブン　川崎井田2丁目店","address":"神奈川県川崎市中原区井田2-35-10","station_id":"862","rental_uris":{"ios":"https://www.hellocycling.jp/app/port/detail/862?referrer=odpt","web":"https://www.hellocycling.jp/app/port/detail/862?referrer=odpt","android":"https://www.hellocycling.jp/app/port/detail/862?referrer=odpt"},"parking_hoop":false,"parking_type":"street_parking","contact_phone":"+8105038218282","vehicle_capacity":"4","is_charging_station":false},{"lat":35.579379,"lon":139.636873,"name":"セブンイレブン　川崎下小田中1丁目店","address":"神奈川県川崎市中原区下小田中1-19-12","station_id":"863","rental_uris":{"ios":"https://www.hellocycling.jp/app/port/detail/863?referrer=odpt","web":"https://www.hellocycling.jp/app/port/detail/863?referrer=odpt","android":"https://www.hellocycling.jp/app/port/detail/863?referrer=odpt"},"parking_hoop":false,"parking_type":"street_parking","contact_phone":"+8105038218282","vehicle_capacity":"10","is_charging_station":false},{"lat":35.579967,"lon":139.641266,"name":"セブンイレブン　武蔵中原駅前店","address":"神奈川県川崎市中原区下小田中2-4-1","station_id":"864","rental_uris":{"ios":"https://www.hellocycling.jp/app/port/detail/864?referrer=odpt","web":"https://www.hellocycling.jp/app/port/detail/864?referrer=odpt","android":"https://www.hellocycling.jp/app/port/detail/864?referrer=odpt"},"parking_hoop":false,"parking_type":"street_parking","contact_phone":"+8105038218282","vehicle_capacity":"24","is_charging_station":false},{"lat":35.601161,"lon":139.620808,"name":"セブンイレブン　川崎二子店","address":"神奈川県川崎市高津区二子6-1-7","station_id":"865","rental_uris":{"ios":"https://www.hellocycling.jp/app/port/detail/865?referrer=odpt","web":"https://www.hellocycling.jp/app/port/detail/865?referrer=odpt","android":"https://www.hellocycling.jp/app/port/detail/865?referrer=odpt"},"parking_hoop":false,"parking_type":"street_parking","contact_phone":"+8105038218282","vehicle_capacity":"5","is_charging_station":false},{"lat":35.600794,"lon":139.620282,"name":"セブンイレブン　川崎二子6丁目店","address":"神奈川県川崎市高津区二子6-6-1","station_id":"866","rental_uris":{"ios":"https://www.hellocycling.jp/app/port/detail/866?referrer=odpt","web":"https://www.hellocycling.jp/app/port/detail/866?referrer=odpt","android":"https://www.hellocycling.jp/app/port/detail/866?referrer=odpt"},"parking_hoop":false,"parking_type":"street_parking","contact_phone":"+8105038218282","vehicle_capacity":"8","is_charging_station":false},{"lat":35.571497,"lon":139.581024,"name":"セブンイレブン　川崎有馬6丁目店","address":"神奈川県川崎市宮前区有馬6-2-12","station_id":"869","rental_uris":{"ios":"https://www.hellocycling.jp/app/port/detail/869?referrer=odpt","web":"https://www.hellocycling.jp/app/port/detail/869?referrer=odpt","android":"https://www.hellocycling.jp/app/port/detail/869?referrer=odpt"},"parking_hoop":false,"parking_type":"street_parking","contact_phone":"+8105038218282","vehicle_capacity":"6","is_charging_station":false},{"lat":35.596869,"lon":139.550409,"name":"セブンイレブン　川崎菅生2丁目店","address":"神奈川県川崎市宮前区菅生2-4-9","station_id":"870","rental_uris":{"ios":"https://www.hellocycling.jp/app/port/detail/870?referrer=odpt","web":"https://www.hellocycling.jp/app/port/detail/870?referrer=odpt","android":"https://www.hellocycling.jp/app/port/detail/870?referrer=odpt"},"parking_hoop":false,"parking_type":"street_parking","contact_phone":"+8105038218282","vehicle_capacity":"6","is_charging_station":false},{"lat":35.50552,"lon":139.614042,"name":"セブンイレブン　新横浜1丁目店","address":"神奈川県横浜市港北区新横浜1-10-10","station_id":"871","rental_uris":{"ios":"https://www.hellocycling.jp/app/port/detail/871?referrer=odpt","web":"https://www.hellocycling.jp/app/port/detail/871?referrer=odpt","android":"https://www.hellocycling.jp/app/port/detail/871?referrer=odpt"},"parking_hoop":false,"parking_type":"street_parking","contact_phone":"+8105038218282","vehicle_capacity":"5","is_charging_station":false},{"lat":35.54058,"lon":139.641248,"name":"セブンイレブン　横浜綱島東2丁目店","address":"神奈川県横浜市港北区綱島東2-19-21","station_id":"872","rental_uris":{"ios":"https://www.hellocycling.jp/app/port/detail/872?referrer=odpt","web":"https://www.hellocycling.jp/app/port/detail/872?referrer=odpt","android":"https://www.hellocycling.jp/app/port/detail/872?referrer=odpt"},"parking_hoop":false,"parking_type":"street_parking","contact_phone":"+8105038218282","vehicle_capacity":"5","is_charging_station":false},{"lat":35.52022,"lon":139.704027,"name":"セブンイレブン　川崎渡田3丁目店","address":"神奈川県川崎市川崎区渡田3-1-2","station_id":"874","rental_uris":{"ios":"https://www.hellocycling.jp/app/port/detail/874?referrer=odpt","web":"https://www.hellocycling.jp/app/port/detail/874?referrer=odpt","android":"https://www.hellocycling.jp/app/port/detail/874?referrer=odpt"},"parking_hoop":false,"parking_type":"street_parking","contact_phone":"+8105038218282","vehicle_capacity":"7","is_charging_station":false},{"lat":35.529606,"lon":139.735372,"name":"セブンイレブン　川崎四谷上町北店","address":"神奈川県川崎市川崎区四谷上町7-11","station_id":"875","rental_uris":{"ios":"https://www.hellocycling.jp/app/port/detail/875?referrer=odpt","web":"https://www.hellocycling.jp/app/port/detail/875?referrer=odpt","android":"https://www.hellocycling.jp/app/port/detail/875?referrer=odpt"},"parking_hoop":false,"parking_type":"street_parking","contact_phone":"+8105038218282","vehicle_capacity":"5","is_charging_station":false},{"lat":35.524553,"lon":139.700251,"name":"セブンイレブン　川崎元木1丁目店","address":"神奈川県川崎市川崎区元木1-1-5","station_id":"876","rental_uris":{"ios":"https://www.hellocycling.jp/app/port/detail/876?referrer=odpt","web":"https://www.hellocycling.jp/app/port/detail/876?referrer=odpt","android":"https://www.hellocycling.jp/app/port/detail/876?referrer=odpt"},"parking_hoop":false,"parking_type":"street_parking","contact_phone":"+8105038218282","vehicle_capacity":"6","is_charging_station":false},{"lat":34.718879,"lon":135.437874,"name":"阪神杭瀬西第２駐輪場","address":"兵庫県尼崎市杭瀬本町3-1","station_id":"883","rental_uris":{"ios":"https://www.hellocycling.jp/app/port/detail/883?referrer=odpt","web":"https://www.hellocycling.jp/app/port/detail/883?referrer=odpt","android":"https://www.hellocycling.jp/app/port/detail/883?referrer=odpt"},"parking_hoop":false,"parking_type":"street_parking","contact_phone":"+8105038218282","vehicle_capacity":"6","is_charging_station":false},{"lat":34.714575,"lon":135.257239,"name":"阪神御影駐輪場","address":"兵庫県神戸市東灘区御影本町2-17","station_id":"884","rental_uris":{"ios":"https://www.hellocycling.jp/app/port/detail/884?referrer=odpt","web":"https://www.hellocycling.jp/app/port/detail/884?referrer=odpt","android":"https://www.hellocycling.jp/app/port/detail/884?referrer=odpt"},"parking_hoop":false,"parking_type":"street_parking","contact_phone":"+8105038218282","vehicle_capacity":"5","is_charging_station":false},{"lat":34.700198998012,"lon":135.44243037701,"name":"阪神福駅前Ａ駐輪場","address":"大阪府大阪市西淀川区福町2-3","station_id":"885","rental_uris":{"ios":"https://www.hellocycling.jp/app/port/detail/885?referrer=odpt","web":"https://www.hellocycling.jp/app/port/detail/885?referrer=odpt","android":"https://www.hellocycling.jp/app/port/detail/885?referrer=odpt"},"parking_hoop":false,"parking_type":"street_parking","contact_phone":"+8105038218282","vehicle_capacity":"10","is_charging_station":false},{"lat":34.682474,"lon":135.465714,"name":"阪神西九条駅東棟B駐輪場","address":"大阪府大阪市此花区西九条３丁目１５－１３","station_id":"886","rental_uris":{"ios":"https://www.hellocycling.jp/app/port/detail/886?referrer=odpt","web":"https://www.hellocycling.jp/app/port/detail/886?referrer=odpt","android":"https://www.hellocycling.jp/app/port/detail/886?referrer=odpt"},"parking_hoop":false,"parking_type":"street_parking","contact_phone":"+8105038218282","vehicle_capacity":"5","is_charging_station":false},{"lat":34.850671848184,"lon":138.25062677264,"name":"藤枝市文化センター","address":"静岡県藤枝市駅前二丁目1-5","station_id":"889","rental_uris":{"ios":"https://www.hellocycling.jp/app/port/detail/889?referrer=odpt","web":"https://www.hellocycling.jp/app/port/detail/889?referrer=odpt","android":"https://www.hellocycling.jp/app/port/detail/889?referrer=odpt"},"parking_hoop":false,"parking_type":"street_parking","contact_phone":"+8105038218282","vehicle_capacity":"6","is_charging_station":false},{"lat":34.851454,"lon":138.251393,"name":"まちづくり藤枝","address":"静岡県藤枝市駅前二丁目7-26","station_id":"890","rental_uris":{"ios":"https://www.hellocycling.jp/app/port/detail/890?referrer=odpt","web":"https://www.hellocycling.jp/app/port/detail/890?referrer=odpt","android":"https://www.hellocycling.jp/app/port/detail/890?referrer=odpt"},"parking_hoop":false,"parking_type":"street_parking","contact_phone":"+8105038218282","vehicle_capacity":"3","is_charging_station":false},{"lat":35.892533,"lon":139.643097,"name":"サイクルベースあさひさいたま新都心店","address":"埼玉県さいたま市大宮区北袋町1-218-1","station_id":"892","rental_uris":{"ios":"https://www.hellocycling.jp/app/port/detail/892?referrer=odpt","web":"https://www.hellocycling.jp/app/port/detail/892?referrer=odpt","android":"https://www.hellocycling.jp/app/port/detail/892?referrer=odpt"},"parking_hoop":false,"parking_type":"street_parking","contact_phone":"+8105038218282","vehicle_capacity":"4","is_charging_station":false},{"lat":35.590256,"lon":139.555223,"name":"セブンイレブン　川崎犬蔵3丁目店","address":"神奈川県川崎市宮前区犬蔵3-8-7","station_id":"893","rental_uris":{"ios":"https://www.hellocycling.jp/app/port/detail/893?referrer=odpt","web":"https://www.hellocycling.jp/app/port/detail/893?referrer=odpt","android":"https://www.hellocycling.jp/app/port/detail/893?referrer=odpt"},"parking_hoop":false,"parking_type":"street_parking","contact_phone":"+8105038218282","vehicle_capacity":"6","is_charging_station":false},{"lat":35.601906,"lon":139.54159,"name":"セブンイレブン　川崎東長澤店","address":"神奈川県川崎市多摩区南生田5-2-9","station_id":"894","rental_uris":{"ios":"https://www.hellocycling.jp/app/port/detail/894?referrer=odpt","web":"https://www.hellocycling.jp/app/port/detail/894?referrer=odpt","android":"https://www.hellocycling.jp/app/port/detail/894?referrer=odpt"},"parking_hoop":false,"parking_type":"street_parking","contact_phone":"+8105038218282","vehicle_capacity":"10","is_charging_station":false},{"lat":35.81245,"lon":139.597141,"name":"朝霞市博物館","address":"埼玉県朝霞市岡2-7-22","station_id":"895","rental_uris":{"ios":"https://www.hellocycling.jp/app/port/detail/895?referrer=odpt","web":"https://www.hellocycling.jp/app/port/detail/895?referrer=odpt","android":"https://www.hellocycling.jp/app/port/detail/895?referrer=odpt"},"parking_hoop":false,"parking_type":"street_parking","contact_phone":"+8105038218282","vehicle_capacity":"5","is_charging_station":false},{"lat":35.634562,"lon":139.545966,"name":"セブンイレブン　川崎布田店","address":"神奈川県川崎市多摩区布田31-27","station_id":"896","rental_uris":{"ios":"https://www.hellocycling.jp/app/port/detail/896?referrer=odpt","web":"https://www.hellocycling.jp/app/port/detail/896?referrer=odpt","android":"https://www.hellocycling.jp/app/port/detail/896?referrer=odpt"},"parking_hoop":false,"parking_type":"street_parking","contact_phone":"+8105038218282","vehicle_capacity":"8","is_charging_station":false},{"lat":35.638324,"lon":139.531894,"name":"セブンイレブン　川崎菅野戸呂店","address":"神奈川県川崎市多摩区菅野戸呂15-22","station_id":"897","rental_uris":{"ios":"https://www.hellocycling.jp/app/port/detail/897?referrer=odpt","web":"https://www.hellocycling.jp/app/port/detail/897?referrer=odpt","android":"https://www.hellocycling.jp/app/port/detail/897?referrer=odpt"},"parking_hoop":false,"parking_type":"street_parking","contact_phone":"+8105038218282","vehicle_capacity":"6","is_charging_station":false},{"lat":35.610303,"lon":139.576105,"name":"セブンイレブン　川崎長尾橋店","address":"神奈川県川崎市多摩区長尾4-3-25","station_id":"898","rental_uris":{"ios":"https://www.hellocycling.jp/app/port/detail/898?referrer=odpt","web":"https://www.hellocycling.jp/app/port/detail/898?referrer=odpt","android":"https://www.hellocycling.jp/app/port/detail/898?referrer=odpt"},"parking_hoop":false,"parking_type":"street_parking","contact_phone":"+8105038218282","vehicle_capacity":"10","is_charging_station":false},{"lat":35.611745,"lon":139.585807,"name":"セブンイレブン　川崎宿河原店","address":"神奈川県川崎市多摩区宿河原6-18-2","station_id":"899","rental_uris":{"ios":"https://www.hellocycling.jp/app/port/detail/899?referrer=odpt","web":"https://www.hellocycling.jp/app/port/detail/899?referrer=odpt","android":"https://www.hellocycling.jp/app/port/detail/899?referrer=odpt"},"parking_hoop":false,"parking_type":"street_parking","contact_phone":"+8105038218282","vehicle_capacity":"5","is_charging_station":false},{"lat":35.599049,"lon":139.554544,"name":"セブンイレブン　川崎菅生1丁目店","address":"神奈川県川崎市宮前区菅生1-8-25","station_id":"900","rental_uris":{"ios":"https://www.hellocycling.jp/app/port/detail/900?referrer=odpt","web":"https://www.hellocycling.jp/app/port/detail/900?referrer=odpt","android":"https://www.hellocycling.jp/app/port/detail/900?referrer=odpt"},"parking_hoop":false,"parking_type":"street_parking","contact_phone":"+8105038218282","vehicle_capacity":"6","is_charging_station":false},{"lat":35.8131749,"lon":139.5907992,"name":"朝霞市産業文化センター","address":"埼玉県朝霞市大字浜崎669-1","station_id":"905","rental_uris":{"ios":"https://www.hellocycling.jp/app/port/detail/905?referrer=odpt","web":"https://www.hellocycling.jp/app/port/detail/905?referrer=odpt","android":"https://www.hellocycling.jp/app/port/detail/905?referrer=odpt"},"parking_hoop":false,"parking_type":"street_parking","contact_phone":"+8105038218282","vehicle_capacity":"7","is_charging_station":false},{"lat":35.370319,"lon":139.576631,"name":"セブンイレブン　横浜港南台9丁目店","address":"神奈川県横浜市港南区港南台9-24-2","station_id":"906","rental_uris":{"ios":"https://www.hellocycling.jp/app/port/detail/906?referrer=odpt","web":"https://www.hellocycling.jp/app/port/detail/906?referrer=odpt","android":"https://www.hellocycling.jp/app/port/detail/906?referrer=odpt"},"parking_hoop":false,"parking_type":"street_parking","contact_phone":"+8105038218282","vehicle_capacity":"6","is_charging_station":false},{"lat":35.815287,"lon":139.587527,"name":"北朝霞駅前広場(北朝霞駅近辺)","address":"埼玉県朝霞市浜崎1-2地内","station_id":"907","rental_uris":{"ios":"https://www.hellocycling.jp/app/port/detail/907?referrer=odpt","web":"https://www.hellocycling.jp/app/port/detail/907?referrer=odpt","android":"https://www.hellocycling.jp/app/port/detail/907?referrer=odpt"},"parking_hoop":false,"parking_type":"street_parking","contact_phone":"+8105038218282","vehicle_capacity":"53","is_charging_station":false},{"lat":35.524674,"lon":139.647124,"name":"トレッサ横浜","address":"神奈川県横浜市港北区師岡町700","station_id":"913","rental_uris":{"ios":"https://www.hellocycling.jp/app/port/detail/913?referrer=odpt","web":"https://www.hellocycling.jp/app/port/detail/913?referrer=odpt","android":"https://www.hellocycling.jp/app/port/detail/913?referrer=odpt"},"parking_hoop":false,"parking_type":"street_parking","contact_phone":"+8105038218282","vehicle_capacity":"20","is_charging_station":false},{"lat":35.595368,"lon":139.626099,"name":"セブンイレブン　川崎坂戸2丁目店","address":"神奈川県川崎市高津区坂戸2-8-5","station_id":"1361","rental_uris":{"ios":"https://www.hellocycling.jp/app/port/detail/1361?referrer=odpt","web":"https://www.hellocycling.jp/app/port/detail/1361?referrer=odpt","android":"https://www.hellocycling.jp/app/port/detail/1361?referrer=odpt"},"parking_hoop":false,"parking_type":"street_parking","contact_phone":"+8105038218282","vehicle_capacity":"6","is_charging_station":false},{"lat":35.597064,"lon":139.571846,"name":"セブンイレブン　川崎平4丁目店","address":"神奈川県川崎市宮前区平4-5-19","station_id":"1362","rental_uris":{"ios":"https://www.hellocycling.jp/app/port/detail/1362?referrer=odpt","web":"https://www.hellocycling.jp/app/port/detail/1362?referrer=odpt","android":"https://www.hellocycling.jp/app/port/detail/1362?referrer=odpt"},"parking_hoop":false,"parking_type":"street_parking","contact_phone":"+8105038218282","vehicle_capacity":"12","is_charging_station":false},{"lat":35.53291,"lon":139.70144,"name":"セブンイレブン　川崎駅北店","address":"神奈川県川崎市川崎区砂子1-4-2-5","station_id":"1364","rental_uris":{"ios":"https://www.hellocycling.jp/app/port/detail/1364?referrer=odpt","web":"https://www.hellocycling.jp/app/port/detail/1364?referrer=odpt","android":"https://www.hellocycling.jp/app/port/detail/1364?referrer=odpt"},"parking_hoop":false,"parking_type":"street_parking","contact_phone":"+8105038218282","vehicle_capacity":"4","is_charging_station":false},{"lat":35.544948,"lon":139.660971,"name":"セブンイレブン　川崎南加瀬3丁目店","address":"神奈川県川崎市幸区南加瀬3-8-20","station_id":"1365","rental_uris":{"ios":"https://www.hellocycling.jp/app/port/detail/1365?referrer=odpt","web":"https://www.hellocycling.jp/app/port/detail/1365?referrer=odpt","android":"https://www.hellocycling.jp/app/port/detail/1365?referrer=odpt"},"parking_hoop":false,"parking_type":"street_parking","contact_phone":"+8105038218282","vehicle_capacity":"11","is_charging_station":false},{"lat":35.47639,"lon":139.54257,"name":"セブンイレブン　横浜鶴ヶ峰本町南店","address":"神奈川県横浜市旭区鶴ヶ峰本町1-35-25","station_id":"1369","rental_uris":{"ios":"https://www.hellocycling.jp/app/port/detail/1369?referrer=odpt","web":"https://www.hellocycling.jp/app/port/detail/1369?referrer=odpt","android":"https://www.hellocycling.jp/app/port/detail/1369?referrer=odpt"},"parking_hoop":false,"parking_type":"street_parking","contact_phone":"+8105038218282","vehicle_capacity":"5","is_charging_station":false},{"lat":35.582797,"lon":139.591775,"name":"セブンイレブン　川崎馬絹西店","address":"神奈川県川崎市宮前区馬絹1650-1","station_id":"1370","rental_uris":{"ios":"https://www.hellocycling.jp/app/port/detail/1370?referrer=odpt","web":"https://www.hellocycling.jp/app/port/detail/1370?referrer=odpt","android":"https://www.hellocycling.jp/app/port/detail/1370?referrer=odpt"},"parking_hoop":false,"parking_type":"street_parking","contact_phone":"+8105038218282","vehicle_capacity":"5","is_charging_station":false},{"lat":35.567302,"lon":139.648336,"name":"セブンイレブン　川崎木月祗園町店","address":"神奈川県川崎市中原区木月祗園町1-4","station_id":"1391","rental_uris":{"ios":"https://www.hellocycling.jp/app/port/detail/1391?referrer=odpt","web":"https://www.hellocycling.jp/app/port/detail/1391?referrer=odpt","android":"https://www.hellocycling.jp/app/port/detail/1391?referrer=odpt"},"parking_hoop":false,"parking_type":"street_parking","contact_phone":"+8105038218282","vehicle_capacity":"7","is_charging_station":false},{"lat":35.564488,"lon":139.611816,"name":"セブンイレブン　川崎高津野川店","address":"神奈川県川崎市高津区野川4012","station_id":"1392","rental_uris":{"ios":"https://www.hellocycling.jp/app/port/detail/1392?referrer=odpt","web":"https://www.hellocycling.jp/app/port/detail/1392?referrer=odpt","android":"https://www.hellocycling.jp/app/port/detail/1392?referrer=odpt"},"parking_hoop":false,"parking_type":"street_parking","contact_phone":"+8105038218282","vehicle_capacity":"4","is_charging_station":false},{"lat":35.572674,"lon":139.631961,"name":"セブンイレブン　川崎子母口東店","address":"神奈川県川崎市高津区子母口496","station_id":"1393","rental_uris":{"ios":"https://www.hellocycling.jp/app/port/detail/1393?referrer=odpt","web":"https://www.hellocycling.jp/app/port/detail/1393?referrer=odpt","android":"https://www.hellocycling.jp/app/port/detail/1393?referrer=odpt"},"parking_hoop":false,"parking_type":"street_parking","contact_phone":"+8105038218282","vehicle_capacity":"7","is_charging_station":false},{"lat":35.537481,"lon":139.743522,"name":"セブンイレブン　川崎浮島通り店","address":"神奈川県川崎市川崎区殿町1-15-17","station_id":"1395","rental_uris":{"ios":"https://www.hellocycling.jp/app/port/detail/1395?referrer=odpt","web":"https://www.hellocycling.jp/app/port/detail/1395?referrer=odpt","android":"https://www.hellocycling.jp/app/port/detail/1395?referrer=odpt"},"parking_hoop":false,"parking_type":"street_parking","contact_phone":"+8105038218282","vehicle_capacity":"6","is_charging_station":false},{"lat":35.536219,"lon":139.726945,"name":"セブンイレブン　川崎大師駅北店","address":"神奈川県川崎市川崎区中瀬2-1","station_id":"1396","rental_uris":{"ios":"https://www.hellocycling.jp/app/port/detail/1396?referrer=odpt","web":"https://www.hellocycling.jp/app/port/detail/1396?referrer=odpt","android":"https://www.hellocycling.jp/app/port/detail/1396?referrer=odpt"},"parking_hoop":false,"parking_type":"street_parking","contact_phone":"+8105038218282","vehicle_capacity":"5","is_charging_station":false},{"lat":35.647837,"lon":140.081863,"name":"セブンイレブン　検見川東店","address":"千葉県千葉市稲毛区稲毛町5-340-8","station_id":"1402","rental_uris":{"ios":"https://www.hellocycling.jp/app/port/detail/1402?referrer=odpt","web":"https://www.hellocycling.jp/app/port/detail/1402?referrer=odpt","android":"https://www.hellocycling.jp/app/port/detail/1402?referrer=odpt"},"parking_hoop":false,"parking_type":"street_parking","contact_phone":"+8105038218282","vehicle_capacity":"8","is_charging_station":false},{"lat":35.655155,"lon":140.059831,"name":"セブンイレブン　向原店　","address":"千葉県千葉市花見川区幕張町5-408","station_id":"1404","rental_uris":{"ios":"https://www.hellocycling.jp/app/port/detail/1404?referrer=odpt","web":"https://www.hellocycling.jp/app/port/detail/1404?referrer=odpt","android":"https://www.hellocycling.jp/app/port/detail/1404?referrer=odpt"},"parking_hoop":false,"parking_type":"street_parking","contact_phone":"+8105038218282","vehicle_capacity":"3","is_charging_station":false},{"lat":35.662487,"lon":140.046993,"name":"セブンイレブン　幕張店","address":"千葉県千葉市花見川区幕張町1-1341","station_id":"1405","rental_uris":{"ios":"https://www.hellocycling.jp/app/port/detail/1405?referrer=odpt","web":"https://www.hellocycling.jp/app/port/detail/1405?referrer=odpt","android":"https://www.hellocycling.jp/app/port/detail/1405?referrer=odpt"},"parking_hoop":false,"parking_type":"street_parking","contact_phone":"+8105038218282","vehicle_capacity":"6","is_charging_station":false},{"lat":35.66468,"lon":140.03705,"name":"セブンイレブン　幕張西店","address":"千葉県千葉市美浜区幕張西2-7-19","station_id":"1406","rental_uris":{"ios":"https://www.hellocycling.jp/app/port/detail/1406?referrer=odpt","web":"https://www.hellocycling.jp/app/port/detail/1406?referrer=odpt","android":"https://www.hellocycling.jp/app/port/detail/1406?referrer=odpt"},